[
  {
    "datasetid": "positions-geographiques-des-stations-du-reseau-ratp",
    "recordid": "eecc3684c01f262b06dd4446bcfe72bfdb193e63",
    "fields": {
      "stop_coordinates": [48.8720959556315, 2.3305924621304466],
      "stop_desc": "11 RUE SCRIBE - 75109",
      "stop_name": "OPERA",
      "stop_id": "2224140"
    },
    "geometry": { "type": "Point", "coordinates": [2.3305924621304466, 48.8720959556315] },
    "record_timestamp": "2019-03-22T11:43:58+01:00"
  },
  {
    "datasetid": "positions-geographiques-des-stations-du-reseau-ratp",
    "recordid": "6905a15661dda723c3673d9277c40055cc46493e",
    "fields": {
      "stop_coordinates": [48.84121427664235, 2.3214600496903803],
      "stop_desc": "FACE 37 RUE DU DEPART - 75114",
      "stop_name": "GARE MONTPARNASSE",
      "stop_id": "3442435"
    },
    "geometry": { "type": "Point", "coordinates": [2.3214600496903803, 48.84121427664235] },
    "record_timestamp": "2019-03-22T11:43:58+01:00"
  },
  {
    "datasetid": "positions-geographiques-des-stations-du-reseau-ratp",
    "recordid": "cf4614aba7163f5639f0dcf642187cbe8b3ec9e6",
    "fields": {
      "stop_coordinates": [48.81151574234897, 2.2808483900184924],
      "stop_desc": "64 BOULEVARD DU COLONEL FABIEN - 92046",
      "stop_name": "COLONEL FABIEN",
      "stop_id": "3619148"
    },
    "geometry": { "type": "Point", "coordinates": [2.2808483900184924, 48.81151574234897] },
    "record_timestamp": "2019-03-22T11:43:58+01:00"
  },
  {
    "datasetid": "positions-geographiques-des-stations-du-reseau-ratp",
    "recordid": "36469c76c0402d76412e6c566d8ecd5955d79c46",
    "fields": {
      "stop_coordinates": [48.81172435455524, 2.443494914666074],
      "stop_desc": "FACE 85 AVENUE GEORGES CLEMENCEAU - 94046",
      "stop_name": "CONCORDE",
      "stop_id": "3663570"
    },
    "geometry": { "type": "Point", "coordinates": [2.443494914666074, 48.81172435455524] },
    "record_timestamp": "2019-03-22T11:43:58+01:00"
  },
  {
    "datasetid": "positions-geographiques-des-stations-du-reseau-ratp",
    "recordid": "1e14e36f9c2ee1da43fcf3986e664096a73790b1",
    "fields": {
      "stop_coordinates": [48.81172435455524, 2.443494914666074],
      "stop_desc": "FACE 85 AVENUE GEORGES CLEMENCEAU - 94046",
      "stop_name": "CONCORDE",
      "stop_id": "3663645"
    },
    "geometry": { "type": "Point", "coordinates": [2.443494914666074, 48.81172435455524] },
    "record_timestamp": "2019-03-22T11:43:58+01:00"
  },
  {
    "datasetid": "positions-geographiques-des-stations-du-reseau-ratp",
    "recordid": "5a46929ab8496078f1259bc055aa96b0302e0cd2",
    "fields": {
      "stop_coordinates": [48.88115353570434, 2.3579125346298873],
      "stop_desc": "183 RUE DU FAUBOURG SAINT-DENIS - 75110",
      "stop_name": "GARE DU NORD",
      "stop_id": "3666565"
    },
    "geometry": { "type": "Point", "coordinates": [2.3579125346298873, 48.88115353570434] },
    "record_timestamp": "2019-03-22T11:43:58+01:00"
  },
  {
    "datasetid": "positions-geographiques-des-stations-du-reseau-ratp",
    "recordid": "6abf506f4891412457337bc7ee57c428392eda22",
    "fields": {
      "stop_coordinates": [48.87226813294339, 2.4282099712526306],
      "stop_desc": "40 RUE RAYMOND LEFEBVRE - 93006",
      "stop_name": "STALINGRAD",
      "stop_id": "3687670"
    },
    "geometry": { "type": "Point", "coordinates": [2.4282099712526306, 48.87226813294339] },
    "record_timestamp": "2019-03-22T11:43:58+01:00"
  },
  {
    "datasetid": "positions-geographiques-des-stations-du-reseau-ratp",
    "recordid": "8fb329d4eef8c8972f90d2626224d4313c414acc",
    "fields": {
      "stop_coordinates": [48.859075989520655, 2.473870881419788],
      "stop_desc": "127-129 AVENUE VICTOR HUGO - 94033",
      "stop_name": "VICTOR HUGO",
      "stop_id": "3690353"
    },
    "geometry": { "type": "Point", "coordinates": [2.473870881419788, 48.859075989520655] },
    "record_timestamp": "2019-03-22T11:43:58+01:00"
  },
  {
    "datasetid": "positions-geographiques-des-stations-du-reseau-ratp",
    "recordid": "baa661326a499c2a62ae1a6ed9fe0554b8cd35dc",
    "fields": {
      "stop_coordinates": [48.85094587621135, 2.462477907739809],
      "stop_desc": "FACE 60 RUE GAMBETTA - 94033",
      "stop_name": "GAMBETTA",
      "stop_id": "3690395"
    },
    "geometry": { "type": "Point", "coordinates": [2.462477907739809, 48.85094587621135] },
    "record_timestamp": "2019-03-22T11:43:58+01:00"
  },
  {
    "datasetid": "positions-geographiques-des-stations-du-reseau-ratp",
    "recordid": "4ca26b15c27a6998ae3ee34d4bcdd719b122d2e1",
    "fields": {
      "stop_coordinates": [48.859075989520655, 2.473870881419788],
      "stop_desc": "127-129 AVENUE VICTOR HUGO - 94033",
      "stop_name": "VICTOR HUGO",
      "stop_id": "3690449"
    },
    "geometry": { "type": "Point", "coordinates": [2.473870881419788, 48.859075989520655] },
    "record_timestamp": "2019-03-22T11:43:58+01:00"
  },
  {
    "datasetid": "positions-geographiques-des-stations-du-reseau-ratp",
    "recordid": "5382b2c519dd1a89001db168cd6fbf77cc1584c8",
    "fields": {
      "stop_coordinates": [48.8749983441565, 2.3243518694909806],
      "stop_desc": "FACE 9 RUE DE ROME - 75108",
      "stop_name": "GARE SAINT-LAZARE",
      "stop_id": "3716873"
    },
    "geometry": { "type": "Point", "coordinates": [2.3243518694909806, 48.8749983441565] },
    "record_timestamp": "2019-03-22T11:43:58+01:00"
  },
  {
    "datasetid": "positions-geographiques-des-stations-du-reseau-ratp",
    "recordid": "fd5d1dc42b73eb163249d13f12062604e4585665",
    "fields": {
      "stop_coordinates": [48.867296005540844, 2.322623676294097],
      "stop_desc": "4 RUE ROYALE - 75108",
      "stop_name": "CONCORDE",
      "stop_id": "3716942"
    },
    "geometry": { "type": "Point", "coordinates": [2.322623676294097, 48.867296005540844] },
    "record_timestamp": "2019-03-22T11:43:58+01:00"
  },
  {
    "datasetid": "positions-geographiques-des-stations-du-reseau-ratp",
    "recordid": "c6f7a7f299ab5510f1598d7349976507d6ee03fe",
    "fields": {
      "stop_coordinates": [48.790384083368984, 2.5079555256354293],
      "stop_desc": "74 BOULEVARD DE LA MARNE - 94068",
      "stop_name": "VOLTAIRE",
      "stop_id": "3686749"
    },
    "geometry": { "type": "Point", "coordinates": [2.5079555256354293, 48.790384083368984] },
    "record_timestamp": "2019-03-22T11:43:58+01:00"
  },
  {
    "datasetid": "positions-geographiques-des-stations-du-reseau-ratp",
    "recordid": "6bfa77b6366a9ab2c8fa54d6eaeab0c6dc285f59",
    "fields": {
      "stop_coordinates": [48.86508854988704, 2.3979013013229573],
      "stop_desc": "9 PLACE GAMBETTA - 75120",
      "stop_name": "GAMBETTA",
      "stop_id": "3687059"
    },
    "geometry": { "type": "Point", "coordinates": [2.3979013013229573, 48.86508854988704] },
    "record_timestamp": "2019-03-22T11:43:58+01:00"
  },
  {
    "datasetid": "positions-geographiques-des-stations-du-reseau-ratp",
    "recordid": "93a9e5d5f2215e62c367f5f20e050bb1094bef14",
    "fields": {
      "stop_coordinates": [48.85726596088864, 2.3527954157613853],
      "stop_desc": "62 RUE DE RIVOLI - 75104",
      "stop_name": "HOTEL DE VILLE",
      "stop_id": "3687085"
    },
    "geometry": { "type": "Point", "coordinates": [2.3527954157613853, 48.85726596088864] },
    "record_timestamp": "2019-03-22T11:43:58+01:00"
  },
  {
    "datasetid": "positions-geographiques-des-stations-du-reseau-ratp",
    "recordid": "52512534dbc3d04913afccdfa82ff12874770844",
    "fields": {
      "stop_coordinates": [48.86123038926119, 2.3401424006485074],
      "stop_desc": "158 RUE DE RIVOLI - 75101",
      "stop_name": "LOUVRE - RIVOLI",
      "stop_id": "3687090"
    },
    "geometry": { "type": "Point", "coordinates": [2.3401424006485074, 48.86123038926119] },
    "record_timestamp": "2019-03-22T11:43:58+01:00"
  },
  {
    "datasetid": "positions-geographiques-des-stations-du-reseau-ratp",
    "recordid": "0a8cf256ed1eb25547b28131e84b12c899ff3e5a",
    "fields": {
      "stop_coordinates": [48.85678114513896, 2.348259761089279],
      "stop_desc": "FACE 14 QUAI DE GESVRES - 75104",
      "stop_name": "CHATELET",
      "stop_id": "3687241"
    },
    "geometry": { "type": "Point", "coordinates": [2.348259761089279, 48.85678114513896] },
    "record_timestamp": "2019-03-22T11:43:58+01:00"
  },
  {
    "datasetid": "positions-geographiques-des-stations-du-reseau-ratp",
    "recordid": "7d0fd16746a6399b481dff09121d6fccc2256f8f",
    "fields": {
      "stop_coordinates": [48.87226813294339, 2.4282099712526306],
      "stop_desc": "40 RUE RAYMOND LEFEBVRE - 93006",
      "stop_name": "STALINGRAD",
      "stop_id": "3687289"
    },
    "geometry": { "type": "Point", "coordinates": [2.4282099712526306, 48.87226813294339] },
    "record_timestamp": "2019-03-22T11:43:58+01:00"
  },
  {
    "datasetid": "positions-geographiques-des-stations-du-reseau-ratp",
    "recordid": "b83d8e5a6388130cf9d361f0eb4fb70e65cc1af0",
    "fields": {
      "stop_coordinates": [48.875590394662375, 2.3580193185240392],
      "stop_desc": "74 BOULEVARD DE STRASBOURG - 75110",
      "stop_name": "GARE DE L'EST",
      "stop_id": "3740295"
    },
    "geometry": { "type": "Point", "coordinates": [2.3580193185240392, 48.875590394662375] },
    "record_timestamp": "2019-03-22T11:43:58+01:00"
  },
  {
    "datasetid": "positions-geographiques-des-stations-du-reseau-ratp",
    "recordid": "5cfa634b642e6756f00dab07c5fc26d8070512aa",
    "fields": {
      "stop_coordinates": [48.81151574234897, 2.2808483900184924],
      "stop_desc": "64 BOULEVARD DU COLONEL FABIEN - 92046",
      "stop_name": "COLONEL FABIEN",
      "stop_id": "3682004"
    },
    "geometry": { "type": "Point", "coordinates": [2.2808483900184924, 48.81151574234897] },
    "record_timestamp": "2019-03-22T11:43:58+01:00"
  },
  {
    "datasetid": "positions-geographiques-des-stations-du-reseau-ratp",
    "recordid": "5e2ce471b4248e50fe6e12f4b8b2426b67288f3d",
    "fields": {
      "stop_coordinates": [48.90803786721315, 2.4961546603940876],
      "stop_desc": "62 AVENUE ARISTIDE BRIAND - 93057",
      "stop_name": "LA FOURCHE",
      "stop_id": "3682038"
    },
    "geometry": { "type": "Point", "coordinates": [2.4961546603940876, 48.90803786721315] },
    "record_timestamp": "2019-03-22T11:43:58+01:00"
  },
  {
    "datasetid": "positions-geographiques-des-stations-du-reseau-ratp",
    "recordid": "93e9439d6f289ab4e98492e354a334e8f79f897c",
    "fields": {
      "stop_coordinates": [48.9146242550899, 2.527604436444727],
      "stop_desc": "74 AVENUE ARISTIDE BRIAND - 93046",
      "stop_name": "GAMBETTA",
      "stop_id": "3682045"
    },
    "geometry": { "type": "Point", "coordinates": [2.527604436444727, 48.9146242550899] },
    "record_timestamp": "2019-03-22T11:43:58+01:00"
  },
  {
    "datasetid": "positions-geographiques-des-stations-du-reseau-ratp",
    "recordid": "f0c0fd4f428e0b04df44a0efd876bad59c719bc2",
    "fields": {
      "stop_coordinates": [48.90803786721315, 2.4961546603940876],
      "stop_desc": "62 AVENUE ARISTIDE BRIAND - 93057",
      "stop_name": "LA FOURCHE",
      "stop_id": "3682174"
    },
    "geometry": { "type": "Point", "coordinates": [2.4961546603940876, 48.90803786721315] },
    "record_timestamp": "2019-03-22T11:43:58+01:00"
  },
  {
    "datasetid": "positions-geographiques-des-stations-du-reseau-ratp",
    "recordid": "df36c67cc725fd925479c87b78acbfe1b0f26db8",
    "fields": {
      "stop_coordinates": [48.83066259989052, 2.3548566679640492],
      "stop_desc": "FACE 6 RUE BOBILLOT - 75113",
      "stop_name": "PLACE D'ITALIE",
      "stop_id": "3764528"
    },
    "geometry": { "type": "Point", "coordinates": [2.3548566679640492, 48.83066259989052] },
    "record_timestamp": "2019-03-22T11:43:58+01:00"
  },
  {
    "datasetid": "positions-geographiques-des-stations-du-reseau-ratp",
    "recordid": "26e2479450361fc6288af00848156a67307a6870",
    "fields": {
      "stop_coordinates": [48.87623765333873, 2.3569976832795057],
      "stop_desc": "15-17 RUE DU 8 MAI 1945 - 75110",
      "stop_name": "GARE DE L'EST",
      "stop_id": "3764653"
    },
    "geometry": { "type": "Point", "coordinates": [2.3569976832795057, 48.87623765333873] },
    "record_timestamp": "2019-03-22T11:43:58+01:00"
  },
  {
    "datasetid": "positions-geographiques-des-stations-du-reseau-ratp",
    "recordid": "f1b4058fd792b36bc64659f51dcaae50adeb6045",
    "fields": {
      "stop_coordinates": [48.88082998036255, 2.3579941644875797],
      "stop_desc": "184 RUE DU FAUBOURG SAINT-DENIS - 75110",
      "stop_name": "GARE DU NORD",
      "stop_id": "3666623"
    },
    "geometry": { "type": "Point", "coordinates": [2.3579941644875797, 48.88082998036255] },
    "record_timestamp": "2019-03-22T11:43:58+01:00"
  },
  {
    "datasetid": "positions-geographiques-des-stations-du-reseau-ratp",
    "recordid": "42e3683462d28ebe7f59d8a88951cb1b4723d164",
    "fields": {
      "stop_coordinates": [48.85831643344756, 2.5348209878560497],
      "stop_desc": "118 AVENUE DU GENERAL DE GAULLE - 93050",
      "stop_name": "PASTEUR",
      "stop_id": "3682893"
    },
    "geometry": { "type": "Point", "coordinates": [2.5348209878560497, 48.85831643344756] },
    "record_timestamp": "2019-03-22T11:43:58+01:00"
  },
  {
    "datasetid": "positions-geographiques-des-stations-du-reseau-ratp",
    "recordid": "307b225e002525e4f7fcdca5d5e0511daa8999e7",
    "fields": {
      "stop_coordinates": [48.86394281893811, 2.5503171019272557],
      "stop_desc": "AVENUE JEAN JAURES - 93050",
      "stop_name": "MAISON BLANCHE",
      "stop_id": "3682958"
    },
    "geometry": { "type": "Point", "coordinates": [2.5503171019272557, 48.86394281893811] },
    "record_timestamp": "2019-03-22T11:43:58+01:00"
  },
  {
    "datasetid": "positions-geographiques-des-stations-du-reseau-ratp",
    "recordid": "1da5bab20f347368c3aa4d0db3d3ac9edb896eed",
    "fields": {
      "stop_coordinates": [48.84406453003791, 2.440524593627664],
      "stop_desc": "13 AVENUE DE NOGENT - 75112",
      "stop_name": "CHATEAU DE VINCENNES",
      "stop_id": "3685679"
    },
    "geometry": { "type": "Point", "coordinates": [2.440524593627664, 48.84406453003791] },
    "record_timestamp": "2019-03-22T11:43:58+01:00"
  },
  {
    "datasetid": "positions-geographiques-des-stations-du-reseau-ratp",
    "recordid": "ba95bbdcf3e73702cf462af5b1aa56c9465bb9bd",
    "fields": {
      "stop_coordinates": [48.84421708132009, 2.4407972345378566],
      "stop_desc": "PISTE GARE ROUTIERE - 75112",
      "stop_name": "CHATEAU DE VINCENNES",
      "stop_id": "3685734"
    },
    "geometry": { "type": "Point", "coordinates": [2.4407972345378566, 48.84421708132009] },
    "record_timestamp": "2019-03-22T11:43:58+01:00"
  },
  {
    "datasetid": "positions-geographiques-des-stations-du-reseau-ratp",
    "recordid": "316c872488bef81df820954667d4118190d3b417",
    "fields": {
      "stop_coordinates": [48.84421708132009, 2.4407972345378566],
      "stop_desc": "PISTE GARE ROUTIERE - 75112",
      "stop_name": "CHATEAU DE VINCENNES",
      "stop_id": "3685789"
    },
    "geometry": { "type": "Point", "coordinates": [2.4407972345378566, 48.84421708132009] },
    "record_timestamp": "2019-03-22T11:43:58+01:00"
  },
  {
    "datasetid": "positions-geographiques-des-stations-du-reseau-ratp",
    "recordid": "9abfdc03c61eb202f20b3340906c709a64c808f3",
    "fields": {
      "stop_coordinates": [48.84850929983121, 2.4546008259526815],
      "stop_desc": "20 RUE FELIX FAURE - 94080",
      "stop_name": "PASTEUR",
      "stop_id": "3685799"
    },
    "geometry": { "type": "Point", "coordinates": [2.4546008259526815, 48.84850929983121] },
    "record_timestamp": "2019-03-22T11:43:58+01:00"
  },
  {
    "datasetid": "positions-geographiques-des-stations-du-reseau-ratp",
    "recordid": "23eb85098e671b16ac05234b49a0b6ceb09d2b35",
    "fields": {
      "stop_coordinates": [48.85888980667615, 2.5068461735062857],
      "stop_desc": "10 AVENUE JEAN JAURES - 93049",
      "stop_name": "VICTOR HUGO",
      "stop_id": "3685948"
    },
    "geometry": { "type": "Point", "coordinates": [2.5068461735062857, 48.85888980667615] },
    "record_timestamp": "2019-03-22T11:43:58+01:00"
  },
  {
    "datasetid": "positions-geographiques-des-stations-du-reseau-ratp",
    "recordid": "04ed90b25c01a741f9594c1fd721ceb930a40ce0",
    "fields": {
      "stop_coordinates": [48.84456683341415, 2.441669417641232],
      "stop_desc": "AVENUE DE NOGENT - 75112",
      "stop_name": "CHATEAU DE VINCENNES",
      "stop_id": "3686057"
    },
    "geometry": { "type": "Point", "coordinates": [2.441669417641232, 48.84456683341415] },
    "record_timestamp": "2019-03-22T11:43:58+01:00"
  },
  {
    "datasetid": "positions-geographiques-des-stations-du-reseau-ratp",
    "recordid": "8c330750859e1fde885041c2f7b79cc63c3b280b",
    "fields": {
      "stop_coordinates": [48.898114000320916, 2.343320482562511],
      "stop_desc": "102 BOULEVARD NEY - 75118",
      "stop_name": "PORTE DE CLIGNANCOURT",
      "stop_id": "7266059"
    },
    "geometry": { "type": "Point", "coordinates": [2.343320482562511, 48.898114000320916] },
    "record_timestamp": "2019-03-22T11:43:58+01:00"
  },
  {
    "datasetid": "positions-geographiques-des-stations-du-reseau-ratp",
    "recordid": "4f06227c9a1967b8aabe1f22783caa8196219170",
    "fields": {
      "stop_coordinates": [48.897718511846065, 2.344315492506714],
      "stop_desc": "BOULEVARD ORNANO - 75118",
      "stop_name": "PORTE DE CLIGNANCOURT",
      "stop_id": "7275129"
    },
    "geometry": { "type": "Point", "coordinates": [2.344315492506714, 48.897718511846065] },
    "record_timestamp": "2019-03-22T11:43:58+01:00"
  },
  {
    "datasetid": "positions-geographiques-des-stations-du-reseau-ratp",
    "recordid": "9baf9ef9be2a97c628c984e1e3a2850f1b80620c",
    "fields": {
      "stop_coordinates": [48.87606668773622, 2.3582102623140737],
      "stop_desc": "9 RUE DU 8 MAI 1945 - 75110",
      "stop_name": "GARE DE L'EST",
      "stop_id": "7275142"
    },
    "geometry": { "type": "Point", "coordinates": [2.3582102623140737, 48.87606668773622] },
    "record_timestamp": "2019-03-22T11:43:58+01:00"
  },
  {
    "datasetid": "positions-geographiques-des-stations-du-reseau-ratp",
    "recordid": "46e013f58177d7f204fd7d23649fbeb0c1221cc1",
    "fields": {
      "stop_coordinates": [48.875590394662375, 2.3580193185240392],
      "stop_desc": "74 BOULEVARD DE STRASBOURG - 75110",
      "stop_name": "GARE DE L'EST",
      "stop_id": "7275143"
    },
    "geometry": { "type": "Point", "coordinates": [2.3580193185240392, 48.875590394662375] },
    "record_timestamp": "2019-03-22T11:43:58+01:00"
  },
  {
    "datasetid": "positions-geographiques-des-stations-du-reseau-ratp",
    "recordid": "cbca0039ad061061b28de7afe17e7db5297879f0",
    "fields": {
      "stop_coordinates": [48.846634763899694, 2.340250527561508],
      "stop_desc": "FACE 71 BOULEVARD SAINT-MICHEL - 75106",
      "stop_name": "LUXEMBOURG",
      "stop_id": "7275157"
    },
    "geometry": { "type": "Point", "coordinates": [2.340250527561508, 48.846634763899694] },
    "record_timestamp": "2019-03-22T11:43:58+01:00"
  },
  {
    "datasetid": "positions-geographiques-des-stations-du-reseau-ratp",
    "recordid": "1f822e8edfe181f22c1dab8144af4287abfdbacb",
    "fields": {
      "stop_coordinates": [48.846041587705, 2.3402777279421545],
      "stop_desc": "75 BOULEVARD SAINT-MICHEL - 75105",
      "stop_name": "LUXEMBOURG",
      "stop_id": "7275211"
    },
    "geometry": { "type": "Point", "coordinates": [2.3402777279421545, 48.846041587705] },
    "record_timestamp": "2019-03-22T11:43:58+01:00"
  },
  {
    "datasetid": "positions-geographiques-des-stations-du-reseau-ratp",
    "recordid": "466c11225bb142ab11aacd013352739dcfd71cce",
    "fields": {
      "stop_coordinates": [48.93864537025909, 2.1702530958492527],
      "stop_desc": "121 AVENUE MAURICE BERTEAUX - 78586",
      "stop_name": "VOLTAIRE",
      "stop_id": "7275228"
    },
    "geometry": { "type": "Point", "coordinates": [2.1702530958492527, 48.93864537025909] },
    "record_timestamp": "2019-03-22T11:43:58+01:00"
  },
  {
    "datasetid": "positions-geographiques-des-stations-du-reseau-ratp",
    "recordid": "44b16f97d7a88eefe0bb7bece89bf74523f16c2d",
    "fields": {
      "stop_coordinates": [48.89192062226174, 2.2429120742176076],
      "stop_desc": "AVENUE ALBERT GLEIZES - 92026",
      "stop_name": "GAMBETTA",
      "stop_id": "7275328"
    },
    "geometry": { "type": "Point", "coordinates": [2.2429120742176076, 48.89192062226174] },
    "record_timestamp": "2019-03-22T11:43:58+01:00"
  },
  {
    "datasetid": "positions-geographiques-des-stations-du-reseau-ratp",
    "recordid": "64022d6d826539042f9869d012ca916793d148ed",
    "fields": {
      "stop_coordinates": [48.87442327938621, 2.3255373687031535],
      "stop_desc": "10 RUE DE ROME - 75108",
      "stop_name": "GARE SAINT-LAZARE",
      "stop_id": "7275549"
    },
    "geometry": { "type": "Point", "coordinates": [2.3255373687031535, 48.87442327938621] },
    "record_timestamp": "2019-03-22T11:43:58+01:00"
  },
  {
    "datasetid": "positions-geographiques-des-stations-du-reseau-ratp",
    "recordid": "09cc5807a42c6d857fa18643ee0179d2d7fb9a52",
    "fields": {
      "stop_coordinates": [48.827744278090094, 2.2743511865626744],
      "stop_desc": "4 BOULEVARD GAMBETTA - 92040",
      "stop_name": "VICTOR HUGO",
      "stop_id": "7275680"
    },
    "geometry": { "type": "Point", "coordinates": [2.2743511865626744, 48.827744278090094] },
    "record_timestamp": "2019-03-22T11:43:58+01:00"
  },
  {
    "datasetid": "positions-geographiques-des-stations-du-reseau-ratp",
    "recordid": "bf470e5a9149ee86ed56c7de81bdaa5f64516d97",
    "fields": {
      "stop_coordinates": [48.87032474855916, 2.641064081206506],
      "stop_desc": "59-61 BOULEVARD DE LORRAINE - 77479",
      "stop_name": "REPUBLIQUE",
      "stop_id": "7312030"
    },
    "geometry": { "type": "Point", "coordinates": [2.641064081206506, 48.87032474855916] },
    "record_timestamp": "2019-03-22T11:43:58+01:00"
  },
  {
    "datasetid": "positions-geographiques-des-stations-du-reseau-ratp",
    "recordid": "11ddc21b1551d01d00893106f759a2e65044584a",
    "fields": {
      "stop_coordinates": [48.81450505866759, 2.400808974369131],
      "stop_desc": "FACE 11 BOULEVARD DE BRANDEBOURG - 94041",
      "stop_name": "GAMBETTA",
      "stop_id": "7312121"
    },
    "geometry": { "type": "Point", "coordinates": [2.400808974369131, 48.81450505866759] },
    "record_timestamp": "2019-03-22T11:43:58+01:00"
  },
  {
    "datasetid": "positions-geographiques-des-stations-du-reseau-ratp",
    "recordid": "62902cf0ef2a9f5a56aad6d72a8d5c5ae585cc26",
    "fields": {
      "stop_coordinates": [48.941199021193164, 2.1649106863628593],
      "stop_desc": "78 AVENUE MAURICE BERTEAUX - 78586",
      "stop_name": "STALINGRAD",
      "stop_id": "7376206"
    },
    "geometry": { "type": "Point", "coordinates": [2.1649106863628593, 48.941199021193164] },
    "record_timestamp": "2019-03-22T11:43:58+01:00"
  },
  {
    "datasetid": "positions-geographiques-des-stations-du-reseau-ratp",
    "recordid": "832ab1dcdda673e992f9be1b3a141745df3fe723",
    "fields": {
      "stop_coordinates": [48.891801277939116, 2.239791167752489],
      "stop_desc": "VOIE PERRONET NORD - 92062",
      "stop_name": "LA DEFENSE-METRO-RER-TRAMWAY",
      "stop_id": "7376257"
    },
    "geometry": { "type": "Point", "coordinates": [2.239791167752489, 48.891801277939116] },
    "record_timestamp": "2019-03-22T11:43:58+01:00"
  },
  {
    "datasetid": "positions-geographiques-des-stations-du-reseau-ratp",
    "recordid": "ec49aa364dd34a81e5e4b62d0e9f12ca9964cb73",
    "fields": {
      "stop_coordinates": [48.87517812506258, 2.3246788243036782],
      "stop_desc": "14 PLACE GABRIEL PERI - 75108",
      "stop_name": "GARE SAINT-LAZARE",
      "stop_id": "7376288"
    },
    "geometry": { "type": "Point", "coordinates": [2.3246788243036782, 48.87517812506258] },
    "record_timestamp": "2019-03-22T11:43:58+01:00"
  },
  {
    "datasetid": "positions-geographiques-des-stations-du-reseau-ratp",
    "recordid": "d27167e09031c98659c3f71726224ed6deb387eb",
    "fields": {
      "stop_coordinates": [48.92083768631448, 2.263710378006438],
      "stop_desc": "40 RUE VICTOR HUGO - 92025",
      "stop_name": "VICTOR HUGO",
      "stop_id": "7512893"
    },
    "geometry": { "type": "Point", "coordinates": [2.263710378006438, 48.92083768631448] },
    "record_timestamp": "2019-03-22T11:43:58+01:00"
  },
  {
    "datasetid": "positions-geographiques-des-stations-du-reseau-ratp",
    "recordid": "010054e2975cf423b2a5c3805735299c17d0cb09",
    "fields": {
      "stop_coordinates": [48.898698128384964, 2.3439748468765798],
      "stop_desc": "FACE 4 AVENUE DE LA PORTE DE CLIGNANCOURT - 75118",
      "stop_name": "PORTE DE CLIGNANCOURT",
      "stop_id": "7661320"
    },
    "geometry": { "type": "Point", "coordinates": [2.3439748468765798, 48.898698128384964] },
    "record_timestamp": "2019-03-22T11:43:58+01:00"
  },
  {
    "datasetid": "positions-geographiques-des-stations-du-reseau-ratp",
    "recordid": "8541dac4235814ea94ae412465976e0257dd8238",
    "fields": {
      "stop_coordinates": [48.78850494351641, 2.3759802633642253],
      "stop_desc": "133 AVENUE DU MOULIN DE SAQUET - 94081",
      "stop_name": "COLONEL FABIEN",
      "stop_id": "7676477"
    },
    "geometry": { "type": "Point", "coordinates": [2.3759802633642253, 48.78850494351641] },
    "record_timestamp": "2019-03-22T11:43:58+01:00"
  },
  {
    "datasetid": "positions-geographiques-des-stations-du-reseau-ratp",
    "recordid": "74773344596df8d0ed42d77a71a8e66fdacea172",
    "fields": {
      "stop_coordinates": [48.898114000320916, 2.343320482562511],
      "stop_desc": "102 BOULEVARD NEY - 75118",
      "stop_name": "PORTE DE CLIGNANCOURT",
      "stop_id": "7691391"
    },
    "geometry": { "type": "Point", "coordinates": [2.343320482562511, 48.898114000320916] },
    "record_timestamp": "2019-03-22T11:43:58+01:00"
  },
  {
    "datasetid": "positions-geographiques-des-stations-du-reseau-ratp",
    "recordid": "06cb6be13ecfff3bcfd6cff9e64a055fe3def834",
    "fields": {
      "stop_coordinates": [48.91329163826983, 2.5053744235784774],
      "stop_desc": "FACE 42 ALLEE DE MONTHYON - 93057",
      "stop_name": "COLONEL FABIEN",
      "stop_id": "6869690"
    },
    "geometry": { "type": "Point", "coordinates": [2.5053744235784774, 48.91329163826983] },
    "record_timestamp": "2019-03-22T11:43:58+01:00"
  },
  {
    "datasetid": "positions-geographiques-des-stations-du-reseau-ratp",
    "recordid": "d42405a1011a1992b31251b75d59810b5329f283",
    "fields": {
      "stop_coordinates": [48.847917334061044, 2.241330728379142],
      "stop_desc": "FACE 1 BIS AVENUE JEAN-BAPTISTE CLEMENT - 92012",
      "stop_name": "GAMBETTA",
      "stop_id": "7069458"
    },
    "geometry": { "type": "Point", "coordinates": [2.241330728379142, 48.847917334061044] },
    "record_timestamp": "2019-03-22T11:43:58+01:00"
  },
  {
    "datasetid": "positions-geographiques-des-stations-du-reseau-ratp",
    "recordid": "f90a3688ed44ed3c697589b9b5bedc3a427db951",
    "fields": {
      "stop_coordinates": [48.84386116261595, 2.3733935527604038],
      "stop_desc": "FACE 189 RUE DE BERCY - 75112",
      "stop_name": "GARE DE LYON",
      "stop_id": "7153047"
    },
    "geometry": { "type": "Point", "coordinates": [2.3733935527604038, 48.84386116261595] },
    "record_timestamp": "2019-03-22T11:43:58+01:00"
  },
  {
    "datasetid": "positions-geographiques-des-stations-du-reseau-ratp",
    "recordid": "cbc234bb8bfdc7e0aa7d64fdc943aef5f9b54456",
    "fields": {
      "stop_coordinates": [48.831651002586945, 2.3563817211355413],
      "stop_desc": "9 PLACE D'ITALIE - 75113",
      "stop_name": "PLACE D'ITALIE",
      "stop_id": "7153059"
    },
    "geometry": { "type": "Point", "coordinates": [2.3563817211355413, 48.831651002586945] },
    "record_timestamp": "2019-03-22T11:43:58+01:00"
  },
  {
    "datasetid": "positions-geographiques-des-stations-du-reseau-ratp",
    "recordid": "d55d2804171b91cd4ef5ce632a60b671cd4f7eb3",
    "fields": {
      "stop_coordinates": [48.82247424034754, 2.3585833443279376],
      "stop_desc": "109 AVENUE D'ITALIE - 75113",
      "stop_name": "MAISON BLANCHE",
      "stop_id": "7153065"
    },
    "geometry": { "type": "Point", "coordinates": [2.3585833443279376, 48.82247424034754] },
    "record_timestamp": "2019-03-22T11:43:58+01:00"
  },
  {
    "datasetid": "positions-geographiques-des-stations-du-reseau-ratp",
    "recordid": "0a62711dfe612b2c0c4780b91874b395a8b301c0",
    "fields": {
      "stop_coordinates": [48.873300053901026, 2.327635793622974],
      "stop_desc": "19-21 RUE AUBER - 75109",
      "stop_name": "HAVRE - HAUSSMANN",
      "stop_id": "7176290"
    },
    "geometry": { "type": "Point", "coordinates": [2.327635793622974, 48.873300053901026] },
    "record_timestamp": "2019-03-22T11:43:58+01:00"
  },
  {
    "datasetid": "positions-geographiques-des-stations-du-reseau-ratp",
    "recordid": "8d2d2faee08dd791ca987b4b9407e936bf7e2112",
    "fields": {
      "stop_coordinates": [48.907969430629855, 2.4935367931702235],
      "stop_desc": "11 AVENUE ARISTIDE BRIAND - 93057",
      "stop_name": "LA FOURCHE",
      "stop_id": "7176339"
    },
    "geometry": { "type": "Point", "coordinates": [2.4935367931702235, 48.907969430629855] },
    "record_timestamp": "2019-03-22T11:43:58+01:00"
  },
  {
    "datasetid": "positions-geographiques-des-stations-du-reseau-ratp",
    "recordid": "6549ea799a3d762f342ce6cd6d436b08aa3de66f",
    "fields": {
      "stop_coordinates": [48.89766454139873, 2.34507881517612],
      "stop_desc": "FACE 55-57 RUE BELLIARD - 75118",
      "stop_name": "PORTE DE CLIGNANCOURT",
      "stop_id": "6423444"
    },
    "geometry": { "type": "Point", "coordinates": [2.34507881517612, 48.89766454139873] },
    "record_timestamp": "2019-03-22T11:43:58+01:00"
  },
  {
    "datasetid": "positions-geographiques-des-stations-du-reseau-ratp",
    "recordid": "cda63895e0c098f04fece0e59fcc96aaf144eaa9",
    "fields": {
      "stop_coordinates": [48.890507768864104, 2.2405840833812425],
      "stop_desc": "PISTE GARE ROUTIERE - 92062",
      "stop_name": "LA DEFENSE-METRO-RER-TRAMWAY",
      "stop_id": "6456027"
    },
    "geometry": { "type": "Point", "coordinates": [2.2405840833812425, 48.890507768864104] },
    "record_timestamp": "2019-03-22T11:43:58+01:00"
  },
  {
    "datasetid": "positions-geographiques-des-stations-du-reseau-ratp",
    "recordid": "11a28fd79f57abd0c81fbc6edbf09d2603cc05d5",
    "fields": {
      "stop_coordinates": [48.866682718988855, 2.3641868567643844],
      "stop_desc": "9 PLACE DE LA REPUBLIQUE - 75103",
      "stop_name": "REPUBLIQUE",
      "stop_id": "6591526"
    },
    "geometry": { "type": "Point", "coordinates": [2.3641868567643844, 48.866682718988855] },
    "record_timestamp": "2019-03-22T11:43:58+01:00"
  },
  {
    "datasetid": "positions-geographiques-des-stations-du-reseau-ratp",
    "recordid": "2aa2484cca6d2e4475befd76241060a5685bc7f3",
    "fields": {
      "stop_coordinates": [48.846634763899694, 2.340250527561508],
      "stop_desc": "FACE 71 BOULEVARD SAINT-MICHEL - 75106",
      "stop_name": "LUXEMBOURG",
      "stop_id": "6673111"
    },
    "geometry": { "type": "Point", "coordinates": [2.340250527561508, 48.846634763899694] },
    "record_timestamp": "2019-03-22T11:43:58+01:00"
  },
  {
    "datasetid": "positions-geographiques-des-stations-du-reseau-ratp",
    "recordid": "a462006ee58fed982ab6281259411f4fdff8a47d",
    "fields": {
      "stop_coordinates": [48.89835661611004, 2.344002064732375],
      "stop_desc": "3 AVENUE DE LA PORTE DE CLIGNANCOURT - 75118",
      "stop_name": "PORTE DE CLIGNANCOURT",
      "stop_id": "7714409"
    },
    "geometry": { "type": "Point", "coordinates": [2.344002064732375, 48.89835661611004] },
    "record_timestamp": "2019-03-22T11:43:58+01:00"
  },
  {
    "datasetid": "positions-geographiques-des-stations-du-reseau-ratp",
    "recordid": "11e3b82dfad459ddd4178a3fcef941cbcb91f5b2",
    "fields": {
      "stop_coordinates": [48.8149894949538, 2.2339473492547812],
      "stop_desc": "40 BOULEVARD VERD DE SAINT-JULIEN - 92048",
      "stop_name": "STALINGRAD",
      "stop_id": "7827047"
    },
    "geometry": { "type": "Point", "coordinates": [2.2339473492547812, 48.8149894949538] },
    "record_timestamp": "2019-03-22T11:43:58+01:00"
  },
  {
    "datasetid": "positions-geographiques-des-stations-du-reseau-ratp",
    "recordid": "e69b529cae25fda047846cef612a79f33d58d71f",
    "fields": {
      "stop_coordinates": [48.907969430629855, 2.4935367931702235],
      "stop_desc": "11 AVENUE ARISTIDE BRIAND - 93057",
      "stop_name": "LA FOURCHE",
      "stop_id": "7867477"
    },
    "geometry": { "type": "Point", "coordinates": [2.4935367931702235, 48.907969430629855] },
    "record_timestamp": "2019-03-22T11:43:58+01:00"
  },
  {
    "datasetid": "positions-geographiques-des-stations-du-reseau-ratp",
    "recordid": "c3b9193b9dd2c66a7207b88131902bee54133cfb",
    "fields": {
      "stop_coordinates": [48.91423410186426, 2.4334514173350046],
      "stop_desc": "RUE DE STALINGRAD - 93029",
      "stop_name": "VOLTAIRE",
      "stop_id": "7867492"
    },
    "geometry": { "type": "Point", "coordinates": [2.4334514173350046, 48.91423410186426] },
    "record_timestamp": "2019-03-22T11:43:58+01:00"
  },
  {
    "datasetid": "positions-geographiques-des-stations-du-reseau-ratp",
    "recordid": "597e1f252df0f9e6bf180fb8f308227f8ad77e55",
    "fields": {
      "stop_coordinates": [48.87619243475698, 2.3586326958393027],
      "stop_desc": "FACE 7 RUE DU 8 MAI 1945 - 75110",
      "stop_name": "GARE DE L'EST",
      "stop_id": "5747231"
    },
    "geometry": { "type": "Point", "coordinates": [2.3586326958393027, 48.87619243475698] },
    "record_timestamp": "2019-03-22T11:43:58+01:00"
  },
  {
    "datasetid": "positions-geographiques-des-stations-du-reseau-ratp",
    "recordid": "78a3f3239eb94d983124798098f34bd7f1caa3e7",
    "fields": {
      "stop_coordinates": [48.87619243475698, 2.3586326958393027],
      "stop_desc": "FACE 7 RUE DU 8 MAI 1945 - 75110",
      "stop_name": "GARE DE L'EST",
      "stop_id": "5761443"
    },
    "geometry": { "type": "Point", "coordinates": [2.3586326958393027, 48.87619243475698] },
    "record_timestamp": "2019-03-22T11:43:58+01:00"
  },
  {
    "datasetid": "positions-geographiques-des-stations-du-reseau-ratp",
    "recordid": "c45cae95af7c0dadbe1d3a33dde15dad84674d1c",
    "fields": {
      "stop_coordinates": [48.88783222281554, 2.325152745158805],
      "stop_desc": "70 AVENUE DE CLICHY - 75117",
      "stop_name": "LA FOURCHE",
      "stop_id": "5761995"
    },
    "geometry": { "type": "Point", "coordinates": [2.325152745158805, 48.88783222281554] },
    "record_timestamp": "2019-03-22T11:43:58+01:00"
  },
  {
    "datasetid": "positions-geographiques-des-stations-du-reseau-ratp",
    "recordid": "552bcf8fb65f1613f524c4d2d60bb7beffa1e818",
    "fields": {
      "stop_coordinates": [48.86546515452374, 2.399577301079139],
      "stop_desc": "0 R DU JAPON - 75120",
      "stop_name": "GAMBETTA",
      "stop_id": "5770764"
    },
    "geometry": { "type": "Point", "coordinates": [2.399577301079139, 48.86546515452374] },
    "record_timestamp": "2019-03-22T11:43:58+01:00"
  },
  {
    "datasetid": "positions-geographiques-des-stations-du-reseau-ratp",
    "recordid": "4b543f3e81d3af4ab0e2d601e3ea7238274ee656",
    "fields": {
      "stop_coordinates": [48.858324672028104, 2.4214842004580808],
      "stop_desc": "195 RUE ROBESPIERRE - 93006",
      "stop_name": "VICTOR HUGO",
      "stop_id": "5922168"
    },
    "geometry": { "type": "Point", "coordinates": [2.4214842004580808, 48.858324672028104] },
    "record_timestamp": "2019-03-22T11:43:58+01:00"
  },
  {
    "datasetid": "positions-geographiques-des-stations-du-reseau-ratp",
    "recordid": "2bbd20423c7382474838b28c4e14eea5a798441c",
    "fields": {
      "stop_coordinates": [48.72094227189481, 2.3028857113342966],
      "stop_desc": "AVENUE LE CONCORDE - 91689",
      "stop_name": "CONCORDE",
      "stop_id": "6041844"
    },
    "geometry": { "type": "Point", "coordinates": [2.3028857113342966, 48.72094227189481] },
    "record_timestamp": "2019-03-22T11:43:58+01:00"
  },
  {
    "datasetid": "positions-geographiques-des-stations-du-reseau-ratp",
    "recordid": "dc99a29d73c85507f8b7575d09765926214477b8",
    "fields": {
      "stop_coordinates": [48.89203441877151, 2.2391501464514936],
      "stop_desc": "PISTE GARE ROUTIERE - 92062",
      "stop_name": "LA DEFENSE-METRO-RER-TRAMWAY",
      "stop_id": "6195714"
    },
    "geometry": { "type": "Point", "coordinates": [2.2391501464514936, 48.89203441877151] },
    "record_timestamp": "2019-03-22T11:43:58+01:00"
  },
  {
    "datasetid": "positions-geographiques-des-stations-du-reseau-ratp",
    "recordid": "f3dffa21f91221ebe238bf6ca46038a4330f14e2",
    "fields": {
      "stop_coordinates": [48.874863096583965, 2.3207958046274593],
      "stop_desc": "FACE 24 RUE DE LA PEPINIERE - 75108",
      "stop_name": "SAINT-AUGUSTIN",
      "stop_id": "6217413"
    },
    "geometry": { "type": "Point", "coordinates": [2.3207958046274593, 48.874863096583965] },
    "record_timestamp": "2019-03-22T11:43:58+01:00"
  },
  {
    "datasetid": "positions-geographiques-des-stations-du-reseau-ratp",
    "recordid": "0da997783fe367fcfe4757403f16d26f8806dce2",
    "fields": {
      "stop_coordinates": [48.87441332622057, 2.318084616089399],
      "stop_desc": "10-12 RUE LA BOETIE - 75108",
      "stop_name": "SAINT-AUGUSTIN",
      "stop_id": "6217414"
    },
    "geometry": { "type": "Point", "coordinates": [2.318084616089399, 48.87441332622057] },
    "record_timestamp": "2019-03-22T11:43:58+01:00"
  },
  {
    "datasetid": "positions-geographiques-des-stations-du-reseau-ratp",
    "recordid": "943794b878e653d3d76c3c03ab503fbb79750510",
    "fields": {
      "stop_coordinates": [48.857113475245306, 2.350289246712866],
      "stop_desc": "2 AVENUE VICTORIA - 75104",
      "stop_name": "CHATELET",
      "stop_id": "6251745"
    },
    "geometry": { "type": "Point", "coordinates": [2.350289246712866, 48.857113475245306] },
    "record_timestamp": "2019-03-22T11:43:58+01:00"
  },
  {
    "datasetid": "positions-geographiques-des-stations-du-reseau-ratp",
    "recordid": "36804d7ec7fab73083354923e4a75012498f2421",
    "fields": {
      "stop_coordinates": [48.82251923443529, 2.35827030620746],
      "stop_desc": "150 AVENUE D'ITALIE - 75113",
      "stop_name": "MAISON BLANCHE",
      "stop_id": "6251769"
    },
    "geometry": { "type": "Point", "coordinates": [2.35827030620746, 48.82251923443529] },
    "record_timestamp": "2019-03-22T11:43:58+01:00"
  },
  {
    "datasetid": "positions-geographiques-des-stations-du-reseau-ratp",
    "recordid": "f259aabd2b6187ce335980deaefaa9641d56e8bb",
    "fields": {
      "stop_coordinates": [48.87796073829657, 2.239544673463894],
      "stop_desc": "5 R PARMENTIER - 92062",
      "stop_name": "VOLTAIRE",
      "stop_id": "6309097"
    },
    "geometry": { "type": "Point", "coordinates": [2.239544673463894, 48.87796073829657] },
    "record_timestamp": "2019-03-22T11:43:58+01:00"
  },
  {
    "datasetid": "positions-geographiques-des-stations-du-reseau-ratp",
    "recordid": "e646377dbfcf5a5c2b6a4be3c919ea08d03e0430",
    "fields": {
      "stop_coordinates": [48.78494400320653, 2.2935672705861156],
      "stop_desc": "2 BIS AVENUE LOMBART - 92032",
      "stop_name": "GAMBETTA",
      "stop_id": "5161436"
    },
    "geometry": { "type": "Point", "coordinates": [2.2935672705861156, 48.78494400320653] },
    "record_timestamp": "2019-03-22T11:43:58+01:00"
  },
  {
    "datasetid": "positions-geographiques-des-stations-du-reseau-ratp",
    "recordid": "647a2514a72145c31a13ed92632cbdf31a09ec7c",
    "fields": {
      "stop_coordinates": [48.785719632003165, 2.278836177074233],
      "stop_desc": "46 AVENUE RAYMOND CROLAND - 92032",
      "stop_name": "PASTEUR",
      "stop_id": "5221771"
    },
    "geometry": { "type": "Point", "coordinates": [2.278836177074233, 48.785719632003165] },
    "record_timestamp": "2019-03-22T11:43:58+01:00"
  },
  {
    "datasetid": "positions-geographiques-des-stations-du-reseau-ratp",
    "recordid": "efa09b378f7c208d04c5ffa07572ed6ddfcbcd69",
    "fields": {
      "stop_coordinates": [48.86079960844071, 2.4400539339442706],
      "stop_desc": "19 BOULEVARD ROUGET DE LISLE - 93048",
      "stop_name": "VICTOR HUGO",
      "stop_id": "5231634"
    },
    "geometry": { "type": "Point", "coordinates": [2.4400539339442706, 48.86079960844071] },
    "record_timestamp": "2019-03-22T11:43:58+01:00"
  },
  {
    "datasetid": "positions-geographiques-des-stations-du-reseau-ratp",
    "recordid": "6157bf791b4999b7d5003bbcfe1713c8f2e3305a",
    "fields": {
      "stop_coordinates": [48.84519643284332, 2.5494775458929206],
      "stop_desc": "1 ROUTE DE VILLIERS - 93051",
      "stop_name": "REPUBLIQUE",
      "stop_id": "5231665"
    },
    "geometry": { "type": "Point", "coordinates": [2.5494775458929206, 48.84519643284332] },
    "record_timestamp": "2019-03-22T11:43:58+01:00"
  },
  {
    "datasetid": "positions-geographiques-des-stations-du-reseau-ratp",
    "recordid": "2dff67cbfb576f3ae4f46acec45d4df1f5963c7e",
    "fields": {
      "stop_coordinates": [48.83066259989052, 2.3548566679640492],
      "stop_desc": "FACE 6 RUE BOBILLOT - 75113",
      "stop_name": "PLACE D'ITALIE",
      "stop_id": "5454880"
    },
    "geometry": { "type": "Point", "coordinates": [2.3548566679640492, 48.83066259989052] },
    "record_timestamp": "2019-03-22T11:43:58+01:00"
  },
  {
    "datasetid": "positions-geographiques-des-stations-du-reseau-ratp",
    "recordid": "b73973b28de4c91abb37d394f8efa29c97bf83a6",
    "fields": {
      "stop_coordinates": [48.86149099102279, 2.341272990129671],
      "stop_desc": "16 RUE DU LOUVRE - 75101",
      "stop_name": "LOUVRE - RIVOLI",
      "stop_id": "5454896"
    },
    "geometry": { "type": "Point", "coordinates": [2.341272990129671, 48.86149099102279] },
    "record_timestamp": "2019-03-22T11:43:58+01:00"
  },
  {
    "datasetid": "positions-geographiques-des-stations-du-reseau-ratp",
    "recordid": "a29283dafd58f6aaccf4f743257158245da6af9e",
    "fields": {
      "stop_coordinates": [48.85726596088864, 2.3527954157613853],
      "stop_desc": "62 RUE DE RIVOLI - 75104",
      "stop_name": "HOTEL DE VILLE",
      "stop_id": "5454907"
    },
    "geometry": { "type": "Point", "coordinates": [2.3527954157613853, 48.85726596088864] },
    "record_timestamp": "2019-03-22T11:43:58+01:00"
  },
  {
    "datasetid": "positions-geographiques-des-stations-du-reseau-ratp",
    "recordid": "0e677665b8bb5db9400fbd36e74d301da1229302",
    "fields": {
      "stop_coordinates": [48.81480067417761, 2.4680521146487706],
      "stop_desc": "23 BOULEVARD DU GENERAL LECLERC - 94042",
      "stop_name": "REPUBLIQUE",
      "stop_id": "5478427"
    },
    "geometry": { "type": "Point", "coordinates": [2.4680521146487706, 48.81480067417761] },
    "record_timestamp": "2019-03-22T11:43:58+01:00"
  },
  {
    "datasetid": "positions-geographiques-des-stations-du-reseau-ratp",
    "recordid": "d9aee62a875bf1731e2d53e5f8fc433b26b349c4",
    "fields": {
      "stop_coordinates": [48.84397806224592, 2.3731893823763586],
      "stop_desc": "FACE 191 RUE DE BERCY - 75112",
      "stop_name": "GARE DE LYON",
      "stop_id": "5675641"
    },
    "geometry": { "type": "Point", "coordinates": [2.3731893823763586, 48.84397806224592] },
    "record_timestamp": "2019-03-22T11:43:58+01:00"
  },
  {
    "datasetid": "positions-geographiques-des-stations-du-reseau-ratp",
    "recordid": "ac529187e7edd76ee7c861c010cddbe8d1e83e7e",
    "fields": {
      "stop_coordinates": [48.81899305429177, 2.4109813171069656],
      "stop_desc": "7 RUE VICTOR HUGO - 94018",
      "stop_name": "VICTOR HUGO",
      "stop_id": "5709899"
    },
    "geometry": { "type": "Point", "coordinates": [2.4109813171069656, 48.81899305429177] },
    "record_timestamp": "2019-03-22T11:43:58+01:00"
  },
  {
    "datasetid": "positions-geographiques-des-stations-du-reseau-ratp",
    "recordid": "21a57e1bab8d1c78e701eb7fdb85204dd34a6f43",
    "fields": {
      "stop_coordinates": [48.897718511846065, 2.344315492506714],
      "stop_desc": "BOULEVARD ORNANO - 75118",
      "stop_name": "PORTE DE CLIGNANCOURT",
      "stop_id": "5710003"
    },
    "geometry": { "type": "Point", "coordinates": [2.344315492506714, 48.897718511846065] },
    "record_timestamp": "2019-03-22T11:43:58+01:00"
  },
  {
    "datasetid": "positions-geographiques-des-stations-du-reseau-ratp",
    "recordid": "f77ea30bf4c4d09fcf19856b1bf8801fade24db6",
    "fields": {
      "stop_coordinates": [48.860556322770734, 2.340578239561336],
      "stop_desc": "FACE 6 RUE DE L'AMIRAL DE COLIGNY - 75101",
      "stop_name": "LOUVRE - RIVOLI",
      "stop_id": "5710040"
    },
    "geometry": { "type": "Point", "coordinates": [2.340578239561336, 48.860556322770734] },
    "record_timestamp": "2019-03-22T11:43:58+01:00"
  },
  {
    "datasetid": "positions-geographiques-des-stations-du-reseau-ratp",
    "recordid": "35ebf4b41903ccd9057995d8c76fe6c310e4485d",
    "fields": {
      "stop_coordinates": [48.897718511846065, 2.344315492506714],
      "stop_desc": "BOULEVARD ORNANO - 75118",
      "stop_name": "PORTE DE CLIGNANCOURT",
      "stop_id": "5710061"
    },
    "geometry": { "type": "Point", "coordinates": [2.344315492506714, 48.897718511846065] },
    "record_timestamp": "2019-03-22T11:43:58+01:00"
  },
  {
    "datasetid": "positions-geographiques-des-stations-du-reseau-ratp",
    "recordid": "7959debf8555a63a6c13bd104fb1e3b1424a106b",
    "fields": {
      "stop_coordinates": [48.85902811573952, 2.3469390263467473],
      "stop_desc": "108 RUE DE RIVOLI - 75101",
      "stop_name": "CHATELET",
      "stop_id": "5727628"
    },
    "geometry": { "type": "Point", "coordinates": [2.3469390263467473, 48.85902811573952] },
    "record_timestamp": "2019-03-22T11:43:58+01:00"
  },
  {
    "datasetid": "positions-geographiques-des-stations-du-reseau-ratp",
    "recordid": "68668a71dd38f6d0921af333bc939c421035f2cd",
    "fields": {
      "stop_coordinates": [48.83905032018747, 2.246017239564007],
      "stop_desc": "39 ROUTE DE LA REINE - 92012",
      "stop_name": "VICTOR HUGO",
      "stop_id": "5727683"
    },
    "geometry": { "type": "Point", "coordinates": [2.246017239564007, 48.83905032018747] },
    "record_timestamp": "2019-03-22T11:43:58+01:00"
  },
  {
    "datasetid": "positions-geographiques-des-stations-du-reseau-ratp",
    "recordid": "31b74a6e89a17c8604e7f7d5e24b16f7bd183a36",
    "fields": {
      "stop_coordinates": [48.831651002586945, 2.3563817211355413],
      "stop_desc": "9 PLACE D'ITALIE - 75113",
      "stop_name": "PLACE D'ITALIE",
      "stop_id": "4471839"
    },
    "geometry": { "type": "Point", "coordinates": [2.3563817211355413, 48.831651002586945] },
    "record_timestamp": "2019-03-22T11:43:58+01:00"
  },
  {
    "datasetid": "positions-geographiques-des-stations-du-reseau-ratp",
    "recordid": "b3ddd6515ef5ccff72be982619ff2214f6021ac0",
    "fields": {
      "stop_coordinates": [48.874522126234, 2.3254010982774833],
      "stop_desc": "FACE 9 RUE DE ROME - 75108",
      "stop_name": "GARE SAINT-LAZARE",
      "stop_id": "4472774"
    },
    "geometry": { "type": "Point", "coordinates": [2.3254010982774833, 48.874522126234] },
    "record_timestamp": "2019-03-22T11:43:58+01:00"
  },
  {
    "datasetid": "positions-geographiques-des-stations-du-reseau-ratp",
    "recordid": "30640f52b2a11ece56e778dc2a5c518dc1212957",
    "fields": {
      "stop_coordinates": [48.80635626509692, 2.238686132716897],
      "stop_desc": "31 AVENUE LOUVOIS - 92048",
      "stop_name": "VICTOR HUGO",
      "stop_id": "4473392"
    },
    "geometry": { "type": "Point", "coordinates": [2.238686132716897, 48.80635626509692] },
    "record_timestamp": "2019-03-22T11:43:58+01:00"
  },
  {
    "datasetid": "positions-geographiques-des-stations-du-reseau-ratp",
    "recordid": "15ec5cbf22b99da15b4e62be966cb5ab2c2fb444",
    "fields": {
      "stop_coordinates": [48.81434324838934, 2.2349557031717286],
      "stop_desc": "3 BOULEVARD DES NATIONS UNIES - 92048",
      "stop_name": "STALINGRAD",
      "stop_id": "4473399"
    },
    "geometry": { "type": "Point", "coordinates": [2.2349557031717286, 48.81434324838934] },
    "record_timestamp": "2019-03-22T11:43:58+01:00"
  },
  {
    "datasetid": "positions-geographiques-des-stations-du-reseau-ratp",
    "recordid": "2b7729bcf999c9aa381610e399cd596fe1bbf8db",
    "fields": {
      "stop_coordinates": [48.828230590399166, 2.542778775568182],
      "stop_desc": "FACE AU 14 RUE DES FOSSES - 94079",
      "stop_name": "REPUBLIQUE",
      "stop_id": "4614376"
    },
    "geometry": { "type": "Point", "coordinates": [2.542778775568182, 48.828230590399166] },
    "record_timestamp": "2019-03-22T11:43:58+01:00"
  },
  {
    "datasetid": "positions-geographiques-des-stations-du-reseau-ratp",
    "recordid": "f997e3bd55ed614f451504a03bfd210251be9746",
    "fields": {
      "stop_coordinates": [48.827788312419415, 2.272663177862002],
      "stop_desc": "32 BOULEVARD DES FRERES VOISIN - 92040",
      "stop_name": "VICTOR HUGO",
      "stop_id": "3442570"
    },
    "geometry": { "type": "Point", "coordinates": [2.272663177862002, 48.827788312419415] },
    "record_timestamp": "2019-03-22T11:43:58+01:00"
  },
  {
    "datasetid": "positions-geographiques-des-stations-du-reseau-ratp",
    "recordid": "1da43eb88a7c18dec275520d29aa509d8d04faad",
    "fields": {
      "stop_coordinates": [48.858389963548795, 2.3474837299932694],
      "stop_desc": "8 RUE SAINT-DENIS - 75104",
      "stop_name": "CHATELET",
      "stop_id": "3442415"
    },
    "geometry": { "type": "Point", "coordinates": [2.3474837299932694, 48.858389963548795] },
    "record_timestamp": "2019-03-22T11:43:58+01:00"
  },
  {
    "datasetid": "positions-geographiques-des-stations-du-reseau-ratp",
    "recordid": "bb3e112e3a0e40201b8df7b92a6df3b56f93815a",
    "fields": {
      "stop_coordinates": [48.88115353570434, 2.3579125346298873],
      "stop_desc": "183 RUE DU FAUBOURG SAINT-DENIS - 75110",
      "stop_name": "GARE DU NORD",
      "stop_id": "3666624"
    },
    "geometry": { "type": "Point", "coordinates": [2.3579125346298873, 48.88115353570434] },
    "record_timestamp": "2019-03-22T11:43:58+01:00"
  },
  {
    "datasetid": "positions-geographiques-des-stations-du-reseau-ratp",
    "recordid": "6398f1c305dc16a88da0f75fd098e7eea309b74f",
    "fields": {
      "stop_coordinates": [48.87606668773622, 2.3582102623140737],
      "stop_desc": "9 RUE DU 8 MAI 1945 - 75110",
      "stop_name": "GARE DE L'EST",
      "stop_id": "3666672"
    },
    "geometry": { "type": "Point", "coordinates": [2.3582102623140737, 48.87606668773622] },
    "record_timestamp": "2019-03-22T11:43:58+01:00"
  },
  {
    "datasetid": "positions-geographiques-des-stations-du-reseau-ratp",
    "recordid": "e6bfa83d6d99ace467bae7bacf2bb3dd62e77517",
    "fields": {
      "stop_coordinates": [48.87611168124885, 2.357883275054754],
      "stop_desc": "9-11 RUE DU 8 MAI 1945 - 75110",
      "stop_name": "GARE DE L'EST",
      "stop_id": "3666673"
    },
    "geometry": { "type": "Point", "coordinates": [2.357883275054754, 48.87611168124885] },
    "record_timestamp": "2019-03-22T11:43:58+01:00"
  },
  {
    "datasetid": "positions-geographiques-des-stations-du-reseau-ratp",
    "recordid": "67c4bbae38fa7ff1e94edba55ed7e8b5667b569c",
    "fields": {
      "stop_coordinates": [48.88115353570434, 2.3579125346298873],
      "stop_desc": "183 RUE DU FAUBOURG SAINT-DENIS - 75110",
      "stop_name": "GARE DU NORD",
      "stop_id": "3666676"
    },
    "geometry": { "type": "Point", "coordinates": [2.3579125346298873, 48.88115353570434] },
    "record_timestamp": "2019-03-22T11:43:58+01:00"
  },
  {
    "datasetid": "positions-geographiques-des-stations-du-reseau-ratp",
    "recordid": "a97a66d8d42b485dc3e0fa9f93bf5ba95e88bbb4",
    "fields": {
      "stop_coordinates": [48.869290899856864, 2.6411806353748193],
      "stop_desc": "4 BOULEVARD DE LA MARNE - 77479",
      "stop_name": "REPUBLIQUE",
      "stop_id": "3677726"
    },
    "geometry": { "type": "Point", "coordinates": [2.6411806353748193, 48.869290899856864] },
    "record_timestamp": "2019-03-22T11:43:58+01:00"
  },
  {
    "datasetid": "positions-geographiques-des-stations-du-reseau-ratp",
    "recordid": "32a221009dd716805aebf399bebd7468c0ee31dd",
    "fields": {
      "stop_coordinates": [48.7704079792521, 2.4846381105808426],
      "stop_desc": "AVENUE DE VERDUN - 94011",
      "stop_name": "COLONEL FABIEN",
      "stop_id": "3686577"
    },
    "geometry": { "type": "Point", "coordinates": [2.4846381105808426, 48.7704079792521] },
    "record_timestamp": "2019-03-22T11:43:58+01:00"
  },
  {
    "datasetid": "positions-geographiques-des-stations-du-reseau-ratp",
    "recordid": "b9d490c3c0cc05f65fed0fb04de0bf0ff85fff59",
    "fields": {
      "stop_coordinates": [48.86483700048306, 2.3977102953683977],
      "stop_desc": "FACE 77 AVENUE GAMBETTA - 75120",
      "stop_name": "GAMBETTA",
      "stop_id": "3687060"
    },
    "geometry": { "type": "Point", "coordinates": [2.3977102953683977, 48.86483700048306] },
    "record_timestamp": "2019-03-22T11:43:58+01:00"
  },
  {
    "datasetid": "positions-geographiques-des-stations-du-reseau-ratp",
    "recordid": "8b02bad3fd70393561c061d35249bfed8dc0157b",
    "fields": {
      "stop_coordinates": [48.856061944099835, 2.350302602371364],
      "stop_desc": "FACE 2 QUAI DE GESVRES - 75104",
      "stop_name": "HOTEL DE VILLE",
      "stop_id": "3687086"
    },
    "geometry": { "type": "Point", "coordinates": [2.350302602371364, 48.856061944099835] },
    "record_timestamp": "2019-03-22T11:43:58+01:00"
  },
  {
    "datasetid": "positions-geographiques-des-stations-du-reseau-ratp",
    "recordid": "bf65cd4faf5c13becb3fb19bc71eced414f286ba",
    "fields": {
      "stop_coordinates": [48.86035859070837, 2.34089151189953],
      "stop_desc": "6 PLACE DU LOUVRE - 75101",
      "stop_name": "LOUVRE - RIVOLI",
      "stop_id": "3687239"
    },
    "geometry": { "type": "Point", "coordinates": [2.34089151189953, 48.86035859070837] },
    "record_timestamp": "2019-03-22T11:43:58+01:00"
  },
  {
    "datasetid": "positions-geographiques-des-stations-du-reseau-ratp",
    "recordid": "ad87c2b5dfc6406cfa1ce222763057e7d97fdc20",
    "fields": {
      "stop_coordinates": [48.841798238989874, 2.319825926144041],
      "stop_desc": "PLACE RAOUL DAUTRY - 75115",
      "stop_name": "GARE MONTPARNASSE",
      "stop_id": "3687411"
    },
    "geometry": { "type": "Point", "coordinates": [2.319825926144041, 48.841798238989874] },
    "record_timestamp": "2019-03-22T11:43:58+01:00"
  },
  {
    "datasetid": "positions-geographiques-des-stations-du-reseau-ratp",
    "recordid": "9e6ff0756f5d80dbd2d035364cce2467b790e998",
    "fields": {
      "stop_coordinates": [48.87611168124885, 2.357883275054754],
      "stop_desc": "9-11 RUE DU 8 MAI 1945 - 75110",
      "stop_name": "GARE DE L'EST",
      "stop_id": "3666562"
    },
    "geometry": { "type": "Point", "coordinates": [2.357883275054754, 48.87611168124885] },
    "record_timestamp": "2019-03-22T11:43:58+01:00"
  },
  {
    "datasetid": "positions-geographiques-des-stations-du-reseau-ratp",
    "recordid": "6452d138652e9a2f9ebcc76c500a8ea9d6150216",
    "fields": {
      "stop_coordinates": [48.86079960844071, 2.4400539339442706],
      "stop_desc": "19 BOULEVARD ROUGET DE LISLE - 93048",
      "stop_name": "VICTOR HUGO",
      "stop_id": "3687682"
    },
    "geometry": { "type": "Point", "coordinates": [2.4400539339442706, 48.86079960844071] },
    "record_timestamp": "2019-03-22T11:43:58+01:00"
  },
  {
    "datasetid": "positions-geographiques-des-stations-du-reseau-ratp",
    "recordid": "4ae69b6af7523d49dd0d23f0f0dbb7847d92df9d",
    "fields": {
      "stop_coordinates": [48.8647199635335, 2.3981052038028],
      "stop_desc": "1 PLACE GAMBETTA - 75120",
      "stop_name": "GAMBETTA",
      "stop_id": "3690051"
    },
    "geometry": { "type": "Point", "coordinates": [2.3981052038028, 48.8647199635335] },
    "record_timestamp": "2019-03-22T11:43:58+01:00"
  },
  {
    "datasetid": "positions-geographiques-des-stations-du-reseau-ratp",
    "recordid": "add791fdceba51ea05e3ad00fc232792786af419",
    "fields": {
      "stop_coordinates": [48.85890577468561, 2.4733937075926353],
      "stop_desc": "172 BIS RUE VICTOR HUGO - 94033",
      "stop_name": "VICTOR HUGO",
      "stop_id": "3690352"
    },
    "geometry": { "type": "Point", "coordinates": [2.4733937075926353, 48.85890577468561] },
    "record_timestamp": "2019-03-22T11:43:58+01:00"
  },
  {
    "datasetid": "positions-geographiques-des-stations-du-reseau-ratp",
    "recordid": "5cc1c660146dc30f4a08b965af42c1d4d0af1e1a",
    "fields": {
      "stop_coordinates": [48.86696330378451, 2.3213023563461532],
      "stop_desc": "6 PLACE DE LA CONCORDE - 75108",
      "stop_name": "CONCORDE",
      "stop_id": "3716877"
    },
    "geometry": { "type": "Point", "coordinates": [2.3213023563461532, 48.86696330378451] },
    "record_timestamp": "2019-03-22T11:43:58+01:00"
  },
  {
    "datasetid": "positions-geographiques-des-stations-du-reseau-ratp",
    "recordid": "4a085b6a01bee87093e47ae05c845332bc9ec3ea",
    "fields": {
      "stop_coordinates": [48.84369043264488, 2.373284500119991],
      "stop_desc": "179 RUE DE BERCY - 75112",
      "stop_name": "GARE DE LYON",
      "stop_id": "3716895"
    },
    "geometry": { "type": "Point", "coordinates": [2.373284500119991, 48.84369043264488] },
    "record_timestamp": "2019-03-22T11:43:58+01:00"
  },
  {
    "datasetid": "positions-geographiques-des-stations-du-reseau-ratp",
    "recordid": "cf30f7763f2b19b17d649d00bee53915df093071",
    "fields": {
      "stop_coordinates": [48.81887613822739, 2.411103642894185],
      "stop_desc": "FACE 7 BIS RUE VICTOR HUGO - 94018",
      "stop_name": "VICTOR HUGO",
      "stop_id": "3716906"
    },
    "geometry": { "type": "Point", "coordinates": [2.411103642894185, 48.81887613822739] },
    "record_timestamp": "2019-03-22T11:43:58+01:00"
  },
  {
    "datasetid": "positions-geographiques-des-stations-du-reseau-ratp",
    "recordid": "bfca0c309855ccc54b904a8745f52f218f8d72c9",
    "fields": {
      "stop_coordinates": [48.843744254309904, 2.3736249556721383],
      "stop_desc": "FACE 179 RUE DE BERCY - 75112",
      "stop_name": "GARE DE LYON",
      "stop_id": "3716926"
    },
    "geometry": { "type": "Point", "coordinates": [2.3736249556721383, 48.843744254309904] },
    "record_timestamp": "2019-03-22T11:43:58+01:00"
  },
  {
    "datasetid": "positions-geographiques-des-stations-du-reseau-ratp",
    "recordid": "5dd5b9b78584f2e6a3205857c82252a57b3aad75",
    "fields": {
      "stop_coordinates": [48.873219105262045, 2.326886462987139],
      "stop_desc": "34 RUE TRONCHET - 75109",
      "stop_name": "HAVRE - HAUSSMANN",
      "stop_id": "3716944"
    },
    "geometry": { "type": "Point", "coordinates": [2.326886462987139, 48.873219105262045] },
    "record_timestamp": "2019-03-22T11:43:58+01:00"
  },
  {
    "datasetid": "positions-geographiques-des-stations-du-reseau-ratp",
    "recordid": "b46f79407304590dbdd2e3da552413cadc3e643b",
    "fields": {
      "stop_coordinates": [48.81899305429177, 2.4109813171069656],
      "stop_desc": "7 RUE VICTOR HUGO - 94018",
      "stop_name": "VICTOR HUGO",
      "stop_id": "3716954"
    },
    "geometry": { "type": "Point", "coordinates": [2.4109813171069656, 48.81899305429177] },
    "record_timestamp": "2019-03-22T11:43:58+01:00"
  },
  {
    "datasetid": "positions-geographiques-des-stations-du-reseau-ratp",
    "recordid": "8cd85a6a0c5cb06cb7091e153c404bd5ff14827f",
    "fields": {
      "stop_coordinates": [48.84842978520447, 2.2415340502427488],
      "stop_desc": "FACE 19 BOULEVARD ANATOLE FRANCE - 92012",
      "stop_name": "GAMBETTA",
      "stop_id": "3681824"
    },
    "geometry": { "type": "Point", "coordinates": [2.2415340502427488, 48.84842978520447] },
    "record_timestamp": "2019-03-22T11:43:58+01:00"
  },
  {
    "datasetid": "positions-geographiques-des-stations-du-reseau-ratp",
    "recordid": "5634bbb84e461835d9b3accfd0d7132696ff6c66",
    "fields": {
      "stop_coordinates": [48.83905032018747, 2.246017239564007],
      "stop_desc": "39 ROUTE DE LA REINE - 92012",
      "stop_name": "VICTOR HUGO",
      "stop_id": "3681848"
    },
    "geometry": { "type": "Point", "coordinates": [2.246017239564007, 48.83905032018747] },
    "record_timestamp": "2019-03-22T11:43:58+01:00"
  },
  {
    "datasetid": "positions-geographiques-des-stations-du-reseau-ratp",
    "recordid": "ddafedf7a49acdbcb44243fa4527047c773a057f",
    "fields": {
      "stop_coordinates": [48.823200502897365, 2.3077725274735896],
      "stop_desc": "R VICTOR HUGO - 92046",
      "stop_name": "VICTOR HUGO",
      "stop_id": "3681966"
    },
    "geometry": { "type": "Point", "coordinates": [2.3077725274735896, 48.823200502897365] },
    "record_timestamp": "2019-03-22T11:43:58+01:00"
  },
  {
    "datasetid": "positions-geographiques-des-stations-du-reseau-ratp",
    "recordid": "5368a86e343a682640ff851e9a051fc1888f4454",
    "fields": {
      "stop_coordinates": [48.81209081636463, 2.280548379801124],
      "stop_desc": "FACE 52 BOULEVARD DU COLONEL FABIEN - 92046",
      "stop_name": "COLONEL FABIEN",
      "stop_id": "3681976"
    },
    "geometry": { "type": "Point", "coordinates": [2.280548379801124, 48.81209081636463] },
    "record_timestamp": "2019-03-22T11:43:58+01:00"
  },
  {
    "datasetid": "positions-geographiques-des-stations-du-reseau-ratp",
    "recordid": "8b1d74121ece875f607462686673a327052c373d",
    "fields": {
      "stop_coordinates": [48.823200502897365, 2.3077725274735896],
      "stop_desc": "R VICTOR HUGO - 92046",
      "stop_name": "VICTOR HUGO",
      "stop_id": "3682014"
    },
    "geometry": { "type": "Point", "coordinates": [2.3077725274735896, 48.823200502897365] },
    "record_timestamp": "2019-03-22T11:43:58+01:00"
  },
  {
    "datasetid": "positions-geographiques-des-stations-du-reseau-ratp",
    "recordid": "f2880d4d9b8d4764d0325de2cb0edb135448d7f0",
    "fields": {
      "stop_coordinates": [48.91534153263659, 2.528657012133192],
      "stop_desc": "159 AVENUE ARISTIDE BRIAND - 93046",
      "stop_name": "GAMBETTA",
      "stop_id": "3682046"
    },
    "geometry": { "type": "Point", "coordinates": [2.528657012133192, 48.91534153263659] },
    "record_timestamp": "2019-03-22T11:43:58+01:00"
  },
  {
    "datasetid": "positions-geographiques-des-stations-du-reseau-ratp",
    "recordid": "f1df4d28e6dff92c3a7ffffeab9e790b6c110c85",
    "fields": {
      "stop_coordinates": [48.907969430629855, 2.4935367931702235],
      "stop_desc": "11 AVENUE ARISTIDE BRIAND - 93057",
      "stop_name": "LA FOURCHE",
      "stop_id": "3682217"
    },
    "geometry": { "type": "Point", "coordinates": [2.4935367931702235, 48.907969430629855] },
    "record_timestamp": "2019-03-22T11:43:58+01:00"
  },
  {
    "datasetid": "positions-geographiques-des-stations-du-reseau-ratp",
    "recordid": "dc010c98bd53828de1b3d51b30578db6e5bd0349",
    "fields": {
      "stop_coordinates": [48.86394281893811, 2.5503171019272557],
      "stop_desc": "AVENUE JEAN JAURES - 93050",
      "stop_name": "MAISON BLANCHE",
      "stop_id": "3683007"
    },
    "geometry": { "type": "Point", "coordinates": [2.5503171019272557, 48.86394281893811] },
    "record_timestamp": "2019-03-22T11:43:58+01:00"
  },
  {
    "datasetid": "positions-geographiques-des-stations-du-reseau-ratp",
    "recordid": "962858d490d263a6233921075c64ce6f043089e1",
    "fields": {
      "stop_coordinates": [48.84406453003791, 2.440524593627664],
      "stop_desc": "13 AVENUE DE NOGENT - 75112",
      "stop_name": "CHATEAU DE VINCENNES",
      "stop_id": "3685733"
    },
    "geometry": { "type": "Point", "coordinates": [2.440524593627664, 48.84406453003791] },
    "record_timestamp": "2019-03-22T11:43:58+01:00"
  },
  {
    "datasetid": "positions-geographiques-des-stations-du-reseau-ratp",
    "recordid": "ede361a3c5fea6b4276e38b8f05281671bd75c67",
    "fields": {
      "stop_coordinates": [48.84406453003791, 2.440524593627664],
      "stop_desc": "13 AVENUE DE NOGENT - 75112",
      "stop_name": "CHATEAU DE VINCENNES",
      "stop_id": "3685788"
    },
    "geometry": { "type": "Point", "coordinates": [2.440524593627664, 48.84406453003791] },
    "record_timestamp": "2019-03-22T11:43:58+01:00"
  },
  {
    "datasetid": "positions-geographiques-des-stations-du-reseau-ratp",
    "recordid": "440c2248c43ccbfda7914dc48696d9288bea9e56",
    "fields": {
      "stop_coordinates": [48.84398295485497, 2.441314205634801],
      "stop_desc": "13 AVENUE DE NOGENT - 75112",
      "stop_name": "CHATEAU DE VINCENNES",
      "stop_id": "3685859"
    },
    "geometry": { "type": "Point", "coordinates": [2.441314205634801, 48.84398295485497] },
    "record_timestamp": "2019-03-22T11:43:58+01:00"
  },
  {
    "datasetid": "positions-geographiques-des-stations-du-reseau-ratp",
    "recordid": "d3e638c3ed4c0eed2cb4af780495de66c316a094",
    "fields": {
      "stop_coordinates": [48.84421708132009, 2.4407972345378566],
      "stop_desc": "PISTE GARE ROUTIERE - 75112",
      "stop_name": "CHATEAU DE VINCENNES",
      "stop_id": "3685860"
    },
    "geometry": { "type": "Point", "coordinates": [2.4407972345378566, 48.84421708132009] },
    "record_timestamp": "2019-03-22T11:43:58+01:00"
  },
  {
    "datasetid": "positions-geographiques-des-stations-du-reseau-ratp",
    "recordid": "fdf7d9de56a17d36cfa9db5de81b55592fb897f7",
    "fields": {
      "stop_coordinates": [48.88778725739655, 2.3248665614447788],
      "stop_desc": "69-71 AVENUE DE CLICHY - 75117",
      "stop_name": "LA FOURCHE",
      "stop_id": "5761996"
    },
    "geometry": { "type": "Point", "coordinates": [2.3248665614447788, 48.88778725739655] },
    "record_timestamp": "2019-03-22T11:43:58+01:00"
  },
  {
    "datasetid": "positions-geographiques-des-stations-du-reseau-ratp",
    "recordid": "72c6216fbf0091b73ebac3546574eabc1cdd929b",
    "fields": {
      "stop_coordinates": [48.891001620113975, 2.240037996215271],
      "stop_desc": "AVENUE PERRONET EST - 92062",
      "stop_name": "LA DEFENSE-METRO-RER-TRAMWAY",
      "stop_id": "5775568"
    },
    "geometry": { "type": "Point", "coordinates": [2.240037996215271, 48.891001620113975] },
    "record_timestamp": "2019-03-22T11:43:58+01:00"
  },
  {
    "datasetid": "positions-geographiques-des-stations-du-reseau-ratp",
    "recordid": "03c32ab6e161d520964d7bbbb1efe8f679039eed",
    "fields": {
      "stop_coordinates": [48.705815924537724, 2.3671320394242823],
      "stop_desc": "54-56 AVENUE DE VERDUN - 91027",
      "stop_name": "PASTEUR",
      "stop_id": "5816818"
    },
    "geometry": { "type": "Point", "coordinates": [2.3671320394242823, 48.705815924537724] },
    "record_timestamp": "2019-03-22T11:43:58+01:00"
  },
  {
    "datasetid": "positions-geographiques-des-stations-du-reseau-ratp",
    "recordid": "921ca7b2b0a654b1b13f06d3a4d1e13aba6dad21",
    "fields": {
      "stop_coordinates": [48.91423410186426, 2.4334514173350046],
      "stop_desc": "RUE DE STALINGRAD - 93029",
      "stop_name": "VOLTAIRE",
      "stop_id": "5976286"
    },
    "geometry": { "type": "Point", "coordinates": [2.4334514173350046, 48.91423410186426] },
    "record_timestamp": "2019-03-22T11:43:58+01:00"
  },
  {
    "datasetid": "positions-geographiques-des-stations-du-reseau-ratp",
    "recordid": "8cfddf3ec8d579587ca161cf7e00399a6103a525",
    "fields": {
      "stop_coordinates": [48.6909084764504, 2.293157453118344],
      "stop_desc": "RUE DU DOCTEUR ROUX - 91345",
      "stop_name": "PASTEUR",
      "stop_id": "6041878"
    },
    "geometry": { "type": "Point", "coordinates": [2.293157453118344, 48.6909084764504] },
    "record_timestamp": "2019-03-22T11:43:58+01:00"
  },
  {
    "datasetid": "positions-geographiques-des-stations-du-reseau-ratp",
    "recordid": "b341bd9ecf89a412f7b07b2e09bfec6f0c23a917",
    "fields": {
      "stop_coordinates": [48.85702356778014, 2.3505888687775256],
      "stop_desc": "2-4 AVENUE VICTORIA - 75104",
      "stop_name": "HOTEL DE VILLE",
      "stop_id": "6114731"
    },
    "geometry": { "type": "Point", "coordinates": [2.3505888687775256, 48.85702356778014] },
    "record_timestamp": "2019-03-22T11:43:58+01:00"
  },
  {
    "datasetid": "positions-geographiques-des-stations-du-reseau-ratp",
    "recordid": "a5d37534772dd7929fd50c18aa2821c615c34988",
    "fields": {
      "stop_coordinates": [48.8314984744011, 2.3546799758762553],
      "stop_desc": "10 PLACE D'ITALIE - 75113",
      "stop_name": "PLACE D'ITALIE",
      "stop_id": "6251763"
    },
    "geometry": { "type": "Point", "coordinates": [2.3546799758762553, 48.8314984744011] },
    "record_timestamp": "2019-03-22T11:43:58+01:00"
  },
  {
    "datasetid": "positions-geographiques-des-stations-du-reseau-ratp",
    "recordid": "a16bbbdaf256df400153c99459da8b1d54311831",
    "fields": {
      "stop_coordinates": [48.82247424034754, 2.3585833443279376],
      "stop_desc": "109 AVENUE D'ITALIE - 75113",
      "stop_name": "MAISON BLANCHE",
      "stop_id": "6251770"
    },
    "geometry": { "type": "Point", "coordinates": [2.3585833443279376, 48.82247424034754] },
    "record_timestamp": "2019-03-22T11:43:58+01:00"
  },
  {
    "datasetid": "positions-geographiques-des-stations-du-reseau-ratp",
    "recordid": "03028f380567d5e056b057a6f4e885f5a10fee82",
    "fields": {
      "stop_coordinates": [48.86466559785141, 2.398963340066459],
      "stop_desc": "4 PLACE GAMBETTA - 75120",
      "stop_name": "GAMBETTA",
      "stop_id": "6263536"
    },
    "geometry": { "type": "Point", "coordinates": [2.398963340066459, 48.86466559785141] },
    "record_timestamp": "2019-03-22T11:43:58+01:00"
  },
  {
    "datasetid": "positions-geographiques-des-stations-du-reseau-ratp",
    "recordid": "d8d0a0e4c1956eb1876247c6dd9ffe23bafc8488",
    "fields": {
      "stop_coordinates": [48.86466559785141, 2.398963340066459],
      "stop_desc": "4 PLACE GAMBETTA - 75120",
      "stop_name": "GAMBETTA",
      "stop_id": "6263537"
    },
    "geometry": { "type": "Point", "coordinates": [2.398963340066459, 48.86466559785141] },
    "record_timestamp": "2019-03-22T11:43:58+01:00"
  },
  {
    "datasetid": "positions-geographiques-des-stations-du-reseau-ratp",
    "recordid": "9a93bd99c69a8347f87b0ec9faaa5d94ed562c89",
    "fields": {
      "stop_coordinates": [48.85888980667615, 2.5068461735062857],
      "stop_desc": "10 AVENUE JEAN JAURES - 93049",
      "stop_name": "VICTOR HUGO",
      "stop_id": "6401797"
    },
    "geometry": { "type": "Point", "coordinates": [2.5068461735062857, 48.85888980667615] },
    "record_timestamp": "2019-03-22T11:43:58+01:00"
  },
  {
    "datasetid": "positions-geographiques-des-stations-du-reseau-ratp",
    "recordid": "95ca67839f8c80102a46b5602f39301f51213cd1",
    "fields": {
      "stop_coordinates": [48.84402826056485, 2.440892175345173],
      "stop_desc": "PISTE GARE ROUTIERE - 75112",
      "stop_name": "CHATEAU DE VINCENNES",
      "stop_id": "6423507"
    },
    "geometry": { "type": "Point", "coordinates": [2.440892175345173, 48.84402826056485] },
    "record_timestamp": "2019-03-22T11:43:58+01:00"
  },
  {
    "datasetid": "positions-geographiques-des-stations-du-reseau-ratp",
    "recordid": "cccae1e83d4cda1f713ad769a0350d3b987a0067",
    "fields": {
      "stop_coordinates": [48.891251904500784, 2.238388391474918],
      "stop_desc": "PISTE GARE ROUTIERE - 92062",
      "stop_name": "LA DEFENSE-METRO-RER-TRAMWAY",
      "stop_id": "6456076"
    },
    "geometry": { "type": "Point", "coordinates": [2.238388391474918, 48.891251904500784] },
    "record_timestamp": "2019-03-22T11:43:58+01:00"
  },
  {
    "datasetid": "positions-geographiques-des-stations-du-reseau-ratp",
    "recordid": "759797ffc706f8488c9a0ad6f2bfa569794560f1",
    "fields": {
      "stop_coordinates": [48.868039861543714, 2.363955968897187],
      "stop_desc": "12 PLACE DE LA REPUBLIQUE - 75110",
      "stop_name": "REPUBLIQUE",
      "stop_id": "6591450"
    },
    "geometry": { "type": "Point", "coordinates": [2.363955968897187, 48.868039861543714] },
    "record_timestamp": "2019-03-22T11:43:58+01:00"
  },
  {
    "datasetid": "positions-geographiques-des-stations-du-reseau-ratp",
    "recordid": "160c6bb67672660d6be867017127fc81833aa183",
    "fields": {
      "stop_coordinates": [48.868039861543714, 2.363955968897187],
      "stop_desc": "12 PLACE DE LA REPUBLIQUE - 75110",
      "stop_name": "REPUBLIQUE",
      "stop_id": "6591842"
    },
    "geometry": { "type": "Point", "coordinates": [2.363955968897187, 48.868039861543714] },
    "record_timestamp": "2019-03-22T11:43:58+01:00"
  },
  {
    "datasetid": "positions-geographiques-des-stations-du-reseau-ratp",
    "recordid": "c6f2b4fb992d756ca4168a4e5200426658598202",
    "fields": {
      "stop_coordinates": [48.89325064548313, 2.4611353713492186],
      "stop_desc": "84 BOULEVARD MICHELET - 93053",
      "stop_name": "GAMBETTA",
      "stop_id": "6640162"
    },
    "geometry": { "type": "Point", "coordinates": [2.4611353713492186, 48.89325064548313] },
    "record_timestamp": "2019-03-22T11:43:58+01:00"
  },
  {
    "datasetid": "positions-geographiques-des-stations-du-reseau-ratp",
    "recordid": "d41d4ce4470ece5119e86a6549e541742f51d427",
    "fields": {
      "stop_coordinates": [48.857598970485036, 2.348586823364378],
      "stop_desc": "FACE 15 AVENUE VICTORIA - 75104",
      "stop_name": "CHATELET",
      "stop_id": "6673109"
    },
    "geometry": { "type": "Point", "coordinates": [2.348586823364378, 48.857598970485036] },
    "record_timestamp": "2019-03-22T11:43:58+01:00"
  },
  {
    "datasetid": "positions-geographiques-des-stations-du-reseau-ratp",
    "recordid": "1ef423c5602cc27efd1d5f916e068f1096db6ce3",
    "fields": {
      "stop_coordinates": [48.841798238989874, 2.319825926144041],
      "stop_desc": "PLACE RAOUL DAUTRY - 75115",
      "stop_name": "GARE MONTPARNASSE",
      "stop_id": "7376192"
    },
    "geometry": { "type": "Point", "coordinates": [2.319825926144041, 48.841798238989874] },
    "record_timestamp": "2019-03-22T11:43:58+01:00"
  },
  {
    "datasetid": "positions-geographiques-des-stations-du-reseau-ratp",
    "recordid": "0f8c248bce881bb0ff748d62766b3acbbf3d1883",
    "fields": {
      "stop_coordinates": [48.93872529481307, 2.169570751414759],
      "stop_desc": "146 AVENUE MAURICE BERTEAUX - 78586",
      "stop_name": "VOLTAIRE",
      "stop_id": "7376210"
    },
    "geometry": { "type": "Point", "coordinates": [2.169570751414759, 48.93872529481307] },
    "record_timestamp": "2019-03-22T11:43:58+01:00"
  },
  {
    "datasetid": "positions-geographiques-des-stations-du-reseau-ratp",
    "recordid": "42c1873736dcfdcee77b49fb9b85751b5750e99c",
    "fields": {
      "stop_coordinates": [48.93864537025909, 2.1702530958492527],
      "stop_desc": "121 AVENUE MAURICE BERTEAUX - 78586",
      "stop_name": "VOLTAIRE",
      "stop_id": "7376211"
    },
    "geometry": { "type": "Point", "coordinates": [2.1702530958492527, 48.93864537025909] },
    "record_timestamp": "2019-03-22T11:43:58+01:00"
  },
  {
    "datasetid": "positions-geographiques-des-stations-du-reseau-ratp",
    "recordid": "9fcf342c8321f93d6f20c07a8a036204f94c3534",
    "fields": {
      "stop_coordinates": [48.891801277939116, 2.239791167752489],
      "stop_desc": "VOIE PERRONET NORD - 92062",
      "stop_name": "LA DEFENSE-METRO-RER-TRAMWAY",
      "stop_id": "7376258"
    },
    "geometry": { "type": "Point", "coordinates": [2.239791167752489, 48.891801277939116] },
    "record_timestamp": "2019-03-22T11:43:58+01:00"
  },
  {
    "datasetid": "positions-geographiques-des-stations-du-reseau-ratp",
    "recordid": "0c414f30b02c4721ddcee089744a33aecf8e5659",
    "fields": {
      "stop_coordinates": [48.87441332622057, 2.318084616089399],
      "stop_desc": "10-12 RUE LA BOETIE - 75108",
      "stop_name": "SAINT-AUGUSTIN",
      "stop_id": "7376287"
    },
    "geometry": { "type": "Point", "coordinates": [2.318084616089399, 48.87441332622057] },
    "record_timestamp": "2019-03-22T11:43:58+01:00"
  },
  {
    "datasetid": "positions-geographiques-des-stations-du-reseau-ratp",
    "recordid": "3e065879858167d2111a9cf0daa9fafa9b0f9fae",
    "fields": {
      "stop_coordinates": [48.809275848620665, 2.2984727779887484],
      "stop_desc": "FACE 5-7 AVENUE SAINT-EXUPERY - 92020",
      "stop_name": "MAISON BLANCHE",
      "stop_id": "7627535"
    },
    "geometry": { "type": "Point", "coordinates": [2.2984727779887484, 48.809275848620665] },
    "record_timestamp": "2019-03-22T11:43:58+01:00"
  },
  {
    "datasetid": "positions-geographiques-des-stations-du-reseau-ratp",
    "recordid": "54defe5964972568c7cf890452e46ba1ee332e94",
    "fields": {
      "stop_coordinates": [48.847668324164175, 2.340345911574221],
      "stop_desc": "4-6 PLACE EDMOND ROSTAND - 75106",
      "stop_name": "LUXEMBOURG",
      "stop_id": "7653669"
    },
    "geometry": { "type": "Point", "coordinates": [2.340345911574221, 48.847668324164175] },
    "record_timestamp": "2019-03-22T11:43:58+01:00"
  },
  {
    "datasetid": "positions-geographiques-des-stations-du-reseau-ratp",
    "recordid": "591c8826bb4675d7dbbc4a13c289bca6935d0130",
    "fields": {
      "stop_coordinates": [48.87441332622057, 2.318084616089399],
      "stop_desc": "10-12 RUE LA BOETIE - 75108",
      "stop_name": "SAINT-AUGUSTIN",
      "stop_id": "7653695"
    },
    "geometry": { "type": "Point", "coordinates": [2.318084616089399, 48.87441332622057] },
    "record_timestamp": "2019-03-22T11:43:58+01:00"
  },
  {
    "datasetid": "positions-geographiques-des-stations-du-reseau-ratp",
    "recordid": "5856fbc13ab8dae3e92fa0aaba0179c83237b6fe",
    "fields": {
      "stop_coordinates": [48.913146574234354, 2.5062738627029915],
      "stop_desc": "34-36 ALLEE DE MONTHYON - 93057",
      "stop_name": "COLONEL FABIEN",
      "stop_id": "6869691"
    },
    "geometry": { "type": "Point", "coordinates": [2.5062738627029915, 48.913146574234354] },
    "record_timestamp": "2019-03-22T11:43:58+01:00"
  },
  {
    "datasetid": "positions-geographiques-des-stations-du-reseau-ratp",
    "recordid": "a19a6debfebf28f8d169c1c92a080d1ef2001783",
    "fields": {
      "stop_coordinates": [48.91794686277048, 2.523553037655228],
      "stop_desc": "138 AVENUE VAUBAN - 93046",
      "stop_name": "GAMBETTA",
      "stop_id": "6869697"
    },
    "geometry": { "type": "Point", "coordinates": [2.523553037655228, 48.91794686277048] },
    "record_timestamp": "2019-03-22T11:43:58+01:00"
  },
  {
    "datasetid": "positions-geographiques-des-stations-du-reseau-ratp",
    "recordid": "68925e826f243dc8cc7c8b15759f32f3d97b8126",
    "fields": {
      "stop_coordinates": [48.917328207596725, 2.5226235574970115],
      "stop_desc": "123 AVENUE VAUBAN - 93046",
      "stop_name": "GAMBETTA",
      "stop_id": "6869698"
    },
    "geometry": { "type": "Point", "coordinates": [2.5226235574970115, 48.917328207596725] },
    "record_timestamp": "2019-03-22T11:43:58+01:00"
  },
  {
    "datasetid": "positions-geographiques-des-stations-du-reseau-ratp",
    "recordid": "2d12061759da6e92d56de16fe47df9708139eff0",
    "fields": {
      "stop_coordinates": [48.917328207596725, 2.5226235574970115],
      "stop_desc": "123 AVENUE VAUBAN - 93046",
      "stop_name": "GAMBETTA",
      "stop_id": "6869743"
    },
    "geometry": { "type": "Point", "coordinates": [2.5226235574970115, 48.917328207596725] },
    "record_timestamp": "2019-03-22T11:43:58+01:00"
  },
  {
    "datasetid": "positions-geographiques-des-stations-du-reseau-ratp",
    "recordid": "589b45742c600aa32bcc3a98f34cdd5d388e8efa",
    "fields": {
      "stop_coordinates": [48.913146574234354, 2.5062738627029915],
      "stop_desc": "34-36 ALLEE DE MONTHYON - 93057",
      "stop_name": "COLONEL FABIEN",
      "stop_id": "6869746"
    },
    "geometry": { "type": "Point", "coordinates": [2.5062738627029915, 48.913146574234354] },
    "record_timestamp": "2019-03-22T11:43:58+01:00"
  },
  {
    "datasetid": "positions-geographiques-des-stations-du-reseau-ratp",
    "recordid": "e4bc9319c05e733e2f1d1f8b37e0dc961ae4f350",
    "fields": {
      "stop_coordinates": [48.87390089763454, 2.2221263872228336],
      "stop_desc": "4 RUE VICTOR HUGO - 92073",
      "stop_name": "VICTOR HUGO",
      "stop_id": "6951512"
    },
    "geometry": { "type": "Point", "coordinates": [2.2221263872228336, 48.87390089763454] },
    "record_timestamp": "2019-03-22T11:43:58+01:00"
  },
  {
    "datasetid": "positions-geographiques-des-stations-du-reseau-ratp",
    "recordid": "7c4dbfc93b0f958900cc58086d6a5b3c919194a9",
    "fields": {
      "stop_coordinates": [48.84765681739856, 2.2414810055004577],
      "stop_desc": "1 TER AVENUE JEAN-BAPTISTE CLEMENT - 92012",
      "stop_name": "GAMBETTA",
      "stop_id": "7069457"
    },
    "geometry": { "type": "Point", "coordinates": [2.2414810055004577, 48.84765681739856] },
    "record_timestamp": "2019-03-22T11:43:58+01:00"
  },
  {
    "datasetid": "positions-geographiques-des-stations-du-reseau-ratp",
    "recordid": "50ec19404a82fd818de4c754cf22903a0b644e2a",
    "fields": {
      "stop_coordinates": [48.85790459227585, 2.3480556928647136],
      "stop_desc": "FACE 1 BOULEVARD DE SEBASTOPOL - 75101",
      "stop_name": "CHATELET",
      "stop_id": "7161642"
    },
    "geometry": { "type": "Point", "coordinates": [2.3480556928647136, 48.85790459227585] },
    "record_timestamp": "2019-03-22T11:43:58+01:00"
  },
  {
    "datasetid": "positions-geographiques-des-stations-du-reseau-ratp",
    "recordid": "36287b4735c68ec744d0eddbacc0866bd39c58bb",
    "fields": {
      "stop_coordinates": [48.85790459227585, 2.3480556928647136],
      "stop_desc": "FACE 1 BOULEVARD DE SEBASTOPOL - 75101",
      "stop_name": "CHATELET",
      "stop_id": "7161643"
    },
    "geometry": { "type": "Point", "coordinates": [2.3480556928647136, 48.85790459227585] },
    "record_timestamp": "2019-03-22T11:43:58+01:00"
  },
  {
    "datasetid": "positions-geographiques-des-stations-du-reseau-ratp",
    "recordid": "e12a896767394fdb38cb2ddcb053790040d1541c",
    "fields": {
      "stop_coordinates": [48.871439976255374, 2.332595274227586],
      "stop_desc": "4-6 RUE HALEVY - 75109",
      "stop_name": "OPERA",
      "stop_id": "7176245"
    },
    "geometry": { "type": "Point", "coordinates": [2.332595274227586, 48.871439976255374] },
    "record_timestamp": "2019-03-22T11:43:58+01:00"
  },
  {
    "datasetid": "positions-geographiques-des-stations-du-reseau-ratp",
    "recordid": "14da4918a10c01511c36073e715a6c785ca23e01",
    "fields": {
      "stop_coordinates": [48.9072112412486, 2.496015790879614],
      "stop_desc": "20 ALLEE DANIELLE CASANOVA - 93057",
      "stop_name": "LA FOURCHE",
      "stop_id": "7176338"
    },
    "geometry": { "type": "Point", "coordinates": [2.496015790879614, 48.9072112412486] },
    "record_timestamp": "2019-03-22T11:43:58+01:00"
  },
  {
    "datasetid": "positions-geographiques-des-stations-du-reseau-ratp",
    "recordid": "96047eb9ba1cb692bb33921ddc7771905da5f5a9",
    "fields": {
      "stop_coordinates": [48.8575540203187, 2.3487230170535773],
      "stop_desc": "FACE 15 AVENUE VICTORIA - 75104",
      "stop_name": "CHATELET",
      "stop_id": "7275150"
    },
    "geometry": { "type": "Point", "coordinates": [2.3487230170535773, 48.8575540203187] },
    "record_timestamp": "2019-03-22T11:43:58+01:00"
  },
  {
    "datasetid": "positions-geographiques-des-stations-du-reseau-ratp",
    "recordid": "1e386ccd135852bf838e02b1a12932a1f2462e7d",
    "fields": {
      "stop_coordinates": [48.891801277939116, 2.239791167752489],
      "stop_desc": "VOIE PERRONET NORD - 92062",
      "stop_name": "LA DEFENSE-METRO-RER-TRAMWAY",
      "stop_id": "7275275"
    },
    "geometry": { "type": "Point", "coordinates": [2.239791167752489, 48.891801277939116] },
    "record_timestamp": "2019-03-22T11:43:58+01:00"
  },
  {
    "datasetid": "positions-geographiques-des-stations-du-reseau-ratp",
    "recordid": "565185eaf0940debc8ff487ec1683e3e5d8d4cf5",
    "fields": {
      "stop_coordinates": [48.85753603492456, 2.3488319758479785],
      "stop_desc": "FACE 15 AVENUE VICTORIA - 75104",
      "stop_name": "CHATELET",
      "stop_id": "7275315"
    },
    "geometry": { "type": "Point", "coordinates": [2.3488319758479785, 48.85753603492456] },
    "record_timestamp": "2019-03-22T11:43:58+01:00"
  },
  {
    "datasetid": "positions-geographiques-des-stations-du-reseau-ratp",
    "recordid": "d03c4f50768a2a4c837adc7f548355be97b32b52",
    "fields": {
      "stop_coordinates": [48.86696330378451, 2.3213023563461532],
      "stop_desc": "6 PLACE DE LA CONCORDE - 75108",
      "stop_name": "CONCORDE",
      "stop_id": "7275322"
    },
    "geometry": { "type": "Point", "coordinates": [2.3213023563461532, 48.86696330378451] },
    "record_timestamp": "2019-03-22T11:43:58+01:00"
  },
  {
    "datasetid": "positions-geographiques-des-stations-du-reseau-ratp",
    "recordid": "35262fef72525525671bc446d18c1072870821af",
    "fields": {
      "stop_coordinates": [48.857014888715405, 2.347469838537296],
      "stop_desc": "FACE 16 QUAI DE GESVRES - 75104",
      "stop_name": "CHATELET",
      "stop_id": "7275450"
    },
    "geometry": { "type": "Point", "coordinates": [2.347469838537296, 48.857014888715405] },
    "record_timestamp": "2019-03-22T11:43:58+01:00"
  },
  {
    "datasetid": "positions-geographiques-des-stations-du-reseau-ratp",
    "recordid": "35bef34e23baf1f6ec86380f192f710a438e3ea4",
    "fields": {
      "stop_coordinates": [48.8575540203187, 2.3487230170535773],
      "stop_desc": "FACE 15 AVENUE VICTORIA - 75104",
      "stop_name": "CHATELET",
      "stop_id": "7275451"
    },
    "geometry": { "type": "Point", "coordinates": [2.3487230170535773, 48.8575540203187] },
    "record_timestamp": "2019-03-22T11:43:58+01:00"
  },
  {
    "datasetid": "positions-geographiques-des-stations-du-reseau-ratp",
    "recordid": "79d11b73bb9a8a4179af0f1df0c3af9eaa4f480d",
    "fields": {
      "stop_coordinates": [48.97504516351033, 2.249449644388353],
      "stop_desc": "6-8 BOULEVARD GAMBETTA - 95582",
      "stop_name": "GAMBETTA",
      "stop_id": "5150815"
    },
    "geometry": { "type": "Point", "coordinates": [2.249449644388353, 48.97504516351033] },
    "record_timestamp": "2019-03-22T11:43:58+01:00"
  },
  {
    "datasetid": "positions-geographiques-des-stations-du-reseau-ratp",
    "recordid": "3fc8fb967c77f8efc6022d9903b6a294b235c26f",
    "fields": {
      "stop_coordinates": [48.80202610288528, 2.3109410922086444],
      "stop_desc": "136 AVENUE HENRI RAVERA - 92007",
      "stop_name": "PASTEUR",
      "stop_id": "5161421"
    },
    "geometry": { "type": "Point", "coordinates": [2.3109410922086444, 48.80202610288528] },
    "record_timestamp": "2019-03-22T11:43:58+01:00"
  },
  {
    "datasetid": "positions-geographiques-des-stations-du-reseau-ratp",
    "recordid": "8df6abdd7909ed19775954872d247fdd06ad40dd",
    "fields": {
      "stop_coordinates": [48.845133860047326, 2.5492866499490487],
      "stop_desc": "FACE 45 RUE DU DOCTEUR SUREAU - 93051",
      "stop_name": "REPUBLIQUE",
      "stop_id": "5231556"
    },
    "geometry": { "type": "Point", "coordinates": [2.5492866499490487, 48.845133860047326] },
    "record_timestamp": "2019-03-22T11:43:58+01:00"
  },
  {
    "datasetid": "positions-geographiques-des-stations-du-reseau-ratp",
    "recordid": "f149cbf585d3011ae7588a802975bc58c96c9e9d",
    "fields": {
      "stop_coordinates": [48.86014445221433, 2.4389765728566224],
      "stop_desc": "38 BOULEVARD ROUGET DE LISLE - 93048",
      "stop_name": "VICTOR HUGO",
      "stop_id": "5231589"
    },
    "geometry": { "type": "Point", "coordinates": [2.4389765728566224, 48.86014445221433] },
    "record_timestamp": "2019-03-22T11:43:58+01:00"
  },
  {
    "datasetid": "positions-geographiques-des-stations-du-reseau-ratp",
    "recordid": "30f9b349b57c36b12d8eb3ee5b8a2c3986a4814e",
    "fields": {
      "stop_coordinates": [48.84569462456788, 2.3733675956134705],
      "stop_desc": "FACE 21 BOULEVARD DIDEROT - 75112",
      "stop_name": "GARE DE LYON - DIDEROT",
      "stop_id": "5231613"
    },
    "geometry": { "type": "Point", "coordinates": [2.3733675956134705, 48.84569462456788] },
    "record_timestamp": "2019-03-22T11:43:58+01:00"
  },
  {
    "datasetid": "positions-geographiques-des-stations-du-reseau-ratp",
    "recordid": "01adf7c96d18edb20318ea08dae33d1514481525",
    "fields": {
      "stop_coordinates": [48.86466559785141, 2.398963340066459],
      "stop_desc": "4 PLACE GAMBETTA - 75120",
      "stop_name": "GAMBETTA",
      "stop_id": "5231624"
    },
    "geometry": { "type": "Point", "coordinates": [2.398963340066459, 48.86466559785141] },
    "record_timestamp": "2019-03-22T11:43:58+01:00"
  },
  {
    "datasetid": "positions-geographiques-des-stations-du-reseau-ratp",
    "recordid": "23f0c12d9c6145bdee98c54e953ac989f71e408e",
    "fields": {
      "stop_coordinates": [48.8314984744011, 2.3546799758762553],
      "stop_desc": "10 PLACE D'ITALIE - 75113",
      "stop_name": "PLACE D'ITALIE",
      "stop_id": "5454923"
    },
    "geometry": { "type": "Point", "coordinates": [2.3546799758762553, 48.8314984744011] },
    "record_timestamp": "2019-03-22T11:43:58+01:00"
  },
  {
    "datasetid": "positions-geographiques-des-stations-du-reseau-ratp",
    "recordid": "2e9804d7fadfde72c9179fdc6490df4a0b4b85f3",
    "fields": {
      "stop_coordinates": [48.84421755367569, 2.4402525610227426],
      "stop_desc": "PISTE GARE ROUTIERE - 75112",
      "stop_name": "CHATEAU DE VINCENNES",
      "stop_id": "5478404"
    },
    "geometry": { "type": "Point", "coordinates": [2.4402525610227426, 48.84421755367569] },
    "record_timestamp": "2019-03-22T11:43:58+01:00"
  },
  {
    "datasetid": "positions-geographiques-des-stations-du-reseau-ratp",
    "recordid": "9263797386989c238acdfeb4fa7a7c06164831a4",
    "fields": {
      "stop_coordinates": [48.87560951379554, 2.3246650945789953],
      "stop_desc": "0 RUE INTERIEURE - 75108",
      "stop_name": "GARE SAINT-LAZARE",
      "stop_id": "5657267"
    },
    "geometry": { "type": "Point", "coordinates": [2.3246650945789953, 48.87560951379554] },
    "record_timestamp": "2019-03-22T11:43:58+01:00"
  },
  {
    "datasetid": "positions-geographiques-des-stations-du-reseau-ratp",
    "recordid": "17c0e1c0207360e434a89ebe74ab94ae60bcf109",
    "fields": {
      "stop_coordinates": [48.78850494351641, 2.3759802633642253],
      "stop_desc": "133 AVENUE DU MOULIN DE SAQUET - 94081",
      "stop_name": "COLONEL FABIEN",
      "stop_id": "5688820"
    },
    "geometry": { "type": "Point", "coordinates": [2.3759802633642253, 48.78850494351641] },
    "record_timestamp": "2019-03-22T11:43:58+01:00"
  },
  {
    "datasetid": "positions-geographiques-des-stations-du-reseau-ratp",
    "recordid": "5e98cbdd9b7c475f6ae54a36fc2efbfbe1561dc4",
    "fields": {
      "stop_coordinates": [48.78868471079942, 2.375953192835194],
      "stop_desc": "128 AVENUE DU MOULIN DE SAQUET - 94076",
      "stop_name": "COLONEL FABIEN",
      "stop_id": "5688855"
    },
    "geometry": { "type": "Point", "coordinates": [2.375953192835194, 48.78868471079942] },
    "record_timestamp": "2019-03-22T11:43:58+01:00"
  },
  {
    "datasetid": "positions-geographiques-des-stations-du-reseau-ratp",
    "recordid": "ee3f37c46b71841fda68d871226159e48ea4ec97",
    "fields": {
      "stop_coordinates": [48.8439647057287, 2.441627355320613],
      "stop_desc": "PISTE GARE ROUTIERE - 75112",
      "stop_name": "CHATEAU DE VINCENNES",
      "stop_id": "5709894"
    },
    "geometry": { "type": "Point", "coordinates": [2.441627355320613, 48.8439647057287] },
    "record_timestamp": "2019-03-22T11:43:58+01:00"
  },
  {
    "datasetid": "positions-geographiques-des-stations-du-reseau-ratp",
    "recordid": "feaaec1b9e31b03426b068695b82098a891c4b28",
    "fields": {
      "stop_coordinates": [48.86149099102279, 2.341272990129671],
      "stop_desc": "16 RUE DU LOUVRE - 75101",
      "stop_name": "LOUVRE - RIVOLI",
      "stop_id": "5709981"
    },
    "geometry": { "type": "Point", "coordinates": [2.341272990129671, 48.86149099102279] },
    "record_timestamp": "2019-03-22T11:43:58+01:00"
  },
  {
    "datasetid": "positions-geographiques-des-stations-du-reseau-ratp",
    "recordid": "3519ee60aded88f64dd649c1640fe654d3fac6c0",
    "fields": {
      "stop_coordinates": [48.860556322770734, 2.340578239561336],
      "stop_desc": "FACE 6 RUE DE L'AMIRAL DE COLIGNY - 75101",
      "stop_name": "LOUVRE - RIVOLI",
      "stop_id": "5709982"
    },
    "geometry": { "type": "Point", "coordinates": [2.340578239561336, 48.860556322770734] },
    "record_timestamp": "2019-03-22T11:43:58+01:00"
  },
  {
    "datasetid": "positions-geographiques-des-stations-du-reseau-ratp",
    "recordid": "04d5f0f9c67a36ad0cc6b6ac1b645cc6207368d6",
    "fields": {
      "stop_coordinates": [48.85902811573952, 2.3469390263467473],
      "stop_desc": "108 RUE DE RIVOLI - 75101",
      "stop_name": "CHATELET",
      "stop_id": "5710036"
    },
    "geometry": { "type": "Point", "coordinates": [2.3469390263467473, 48.85902811573952] },
    "record_timestamp": "2019-03-22T11:43:58+01:00"
  },
  {
    "datasetid": "positions-geographiques-des-stations-du-reseau-ratp",
    "recordid": "0ca43bdbe3c9979b8237ddf4593a6654d8836052",
    "fields": {
      "stop_coordinates": [48.86123038926119, 2.3401424006485074],
      "stop_desc": "158 RUE DE RIVOLI - 75101",
      "stop_name": "LOUVRE - RIVOLI",
      "stop_id": "5727630"
    },
    "geometry": { "type": "Point", "coordinates": [2.3401424006485074, 48.86123038926119] },
    "record_timestamp": "2019-03-22T11:43:58+01:00"
  },
  {
    "datasetid": "positions-geographiques-des-stations-du-reseau-ratp",
    "recordid": "944013b5c508b571c36594ad2a37270208ebdb38",
    "fields": {
      "stop_coordinates": [48.6909084764504, 2.293157453118344],
      "stop_desc": "RUE DU DOCTEUR ROUX - 91345",
      "stop_name": "PASTEUR",
      "stop_id": "4890579"
    },
    "geometry": { "type": "Point", "coordinates": [2.293157453118344, 48.6909084764504] },
    "record_timestamp": "2019-03-22T11:43:58+01:00"
  },
  {
    "datasetid": "positions-geographiques-des-stations-du-reseau-ratp",
    "recordid": "4b09b9ffa6543ff0be58b02eebf3c53271c8d511",
    "fields": {
      "stop_coordinates": [48.87623765333873, 2.3569976832795057],
      "stop_desc": "15-17 RUE DU 8 MAI 1945 - 75110",
      "stop_name": "GARE DE L'EST",
      "stop_id": "4996994"
    },
    "geometry": { "type": "Point", "coordinates": [2.3569976832795057, 48.87623765333873] },
    "record_timestamp": "2019-03-22T11:43:58+01:00"
  },
  {
    "datasetid": "positions-geographiques-des-stations-du-reseau-ratp",
    "recordid": "de4f999c803439e00d0fb60ddb4e9606122964dd",
    "fields": {
      "stop_coordinates": [48.871188310963326, 2.3321048352600315],
      "stop_desc": "PLACE DE L'OPERA - 75109",
      "stop_name": "OPERA",
      "stop_id": "5018187"
    },
    "geometry": { "type": "Point", "coordinates": [2.3321048352600315, 48.871188310963326] },
    "record_timestamp": "2019-03-22T11:43:58+01:00"
  },
  {
    "datasetid": "positions-geographiques-des-stations-du-reseau-ratp",
    "recordid": "4e72492b0d944b6dc617bc98f82b274e344b3430",
    "fields": {
      "stop_coordinates": [48.873300053901026, 2.327635793622974],
      "stop_desc": "19-21 RUE AUBER - 75109",
      "stop_name": "HAVRE - HAUSSMANN",
      "stop_id": "5018222"
    },
    "geometry": { "type": "Point", "coordinates": [2.327635793622974, 48.873300053901026] },
    "record_timestamp": "2019-03-22T11:43:58+01:00"
  },
  {
    "datasetid": "positions-geographiques-des-stations-du-reseau-ratp",
    "recordid": "3c11dd738c6b542c5300787578597fa2a4c288bd",
    "fields": {
      "stop_coordinates": [48.87593186637593, 2.358278333713854],
      "stop_desc": "FACE 93 BOULEVARD DE STRASBOURG - 75110",
      "stop_name": "GARE DE L'EST",
      "stop_id": "5018392"
    },
    "geometry": { "type": "Point", "coordinates": [2.358278333713854, 48.87593186637593] },
    "record_timestamp": "2019-03-22T11:43:58+01:00"
  },
  {
    "datasetid": "positions-geographiques-des-stations-du-reseau-ratp",
    "recordid": "1aaea36721966b5d95f02ee720e3e6c648529082",
    "fields": {
      "stop_coordinates": [48.82247424034754, 2.3585833443279376],
      "stop_desc": "109 AVENUE D'ITALIE - 75113",
      "stop_name": "MAISON BLANCHE",
      "stop_id": "5018432"
    },
    "geometry": { "type": "Point", "coordinates": [2.3585833443279376, 48.82247424034754] },
    "record_timestamp": "2019-03-22T11:43:58+01:00"
  },
  {
    "datasetid": "positions-geographiques-des-stations-du-reseau-ratp",
    "recordid": "793c948d0ce38f30a64f6a032450c41b0448a7d5",
    "fields": {
      "stop_coordinates": [48.81434324838934, 2.2349557031717286],
      "stop_desc": "3 BOULEVARD DES NATIONS UNIES - 92048",
      "stop_name": "STALINGRAD",
      "stop_id": "5121325"
    },
    "geometry": { "type": "Point", "coordinates": [2.2349557031717286, 48.81434324838934] },
    "record_timestamp": "2019-03-22T11:43:58+01:00"
  },
  {
    "datasetid": "positions-geographiques-des-stations-du-reseau-ratp",
    "recordid": "246b708cdd0c1d4fe521568e8b40fcdb4ff2e3f9",
    "fields": {
      "stop_coordinates": [48.8419870845697, 2.320574757251473],
      "stop_desc": "PLACE RAOUL DAUTRY - 75115",
      "stop_name": "GARE MONTPARNASSE",
      "stop_id": "5121372"
    },
    "geometry": { "type": "Point", "coordinates": [2.320574757251473, 48.8419870845697] },
    "record_timestamp": "2019-03-22T11:43:58+01:00"
  },
  {
    "datasetid": "positions-geographiques-des-stations-du-reseau-ratp",
    "recordid": "d020a53da6daf896537e0e435f16f012a4b90345",
    "fields": {
      "stop_coordinates": [48.823200502897365, 2.3077725274735896],
      "stop_desc": "R VICTOR HUGO - 92046",
      "stop_name": "VICTOR HUGO",
      "stop_id": "3729698"
    },
    "geometry": { "type": "Point", "coordinates": [2.3077725274735896, 48.823200502897365] },
    "record_timestamp": "2019-03-22T11:43:58+01:00"
  },
  {
    "datasetid": "positions-geographiques-des-stations-du-reseau-ratp",
    "recordid": "d2e2b6152ec1a9f4fbaee7d546a32322668db15a",
    "fields": {
      "stop_coordinates": [48.874863096583965, 2.3207958046274593],
      "stop_desc": "FACE 24 RUE DE LA PEPINIERE - 75108",
      "stop_name": "SAINT-AUGUSTIN",
      "stop_id": "3740519"
    },
    "geometry": { "type": "Point", "coordinates": [2.3207958046274593, 48.874863096583965] },
    "record_timestamp": "2019-03-22T11:43:58+01:00"
  },
  {
    "datasetid": "positions-geographiques-des-stations-du-reseau-ratp",
    "recordid": "c5b261e978c0c8c32b553915425e74be121eb57f",
    "fields": {
      "stop_coordinates": [48.88206125025161, 2.3578992695947516],
      "stop_desc": "PISTE GARE ROUTIERE - 75110",
      "stop_name": "GARE DU NORD",
      "stop_id": "3741051"
    },
    "geometry": { "type": "Point", "coordinates": [2.3578992695947516, 48.88206125025161] },
    "record_timestamp": "2019-03-22T11:43:58+01:00"
  },